STATEFP,COUNTYFP,COUNAME,STNAME,LATITUDE,LONGITUDE
01,001,Autauga,Alabama,32.500194,-86.487813
01,003,Baldwin,Alabama,30.537396,-87.761478
01,005,Barbour,Alabama,31.843981,-85.301306
01,007,Bibb,Alabama,33.032236,-87.136826
01,009,Blount,Alabama,33.954604,-86.592667
01,011,Bullock,Alabama,32.115838,-85.702354
01,013,Butler,Alabama,31.776019,-86.6524
01,015,Calhoun,Alabama,33.727215,-85.817974
01,017,Chambers,Alabama,32.85644,-85.25964
01,019,Cherokee,Alabama,34.180501,-85.629887
01,021,Chilton,Alabama,32.879146,-86.688861
01,023,Choctaw,Alabama,32.016121,-88.262482
01,025,Clarke,Alabama,31.683493,-87.815868
01,027,Clay,Alabama,33.274342,-85.817245
01,029,Cleburne,Alabama,33.625217,-85.495748
01,031,Coffee,Alabama,31.353217,-85.899556
01,033,Colbert,Alabama,34.724339,-87.681892
01,035,Conecuh,Alabama,31.41643,-86.997537
01,037,Coosa,Alabama,32.976884,-86.156212
01,039,Covington,Alabama,31.284146,-86.409203
01,041,Crenshaw,Alabama,31.747324,-86.296787
01,043,Cullman,Alabama,34.162652,-86.83269
01,045,Dale,Alabama,31.383858,-85.63771
01,047,Dallas,Alabama,32.411818,-87.035342
01,049,DeKalb,Alabama,34.452725,-85.817465
01,051,Elmore,Alabama,32.558527,-86.225332
01,053,Escambia,Alabama,31.085439,-87.280078
01,055,Etowah,Alabama,34.012182,-86.025892
01,057,Fayette,Alabama,33.726912,-87.76749
01,059,Franklin,Alabama,34.463509,-87.793592
01,061,Geneva,Alabama,31.094511,-85.781426
01,063,Greene,Alabama,32.833838,-87.924522
01,065,Hale,Alabama,32.783251,-87.627964
01,067,Henry,Alabama,31.469275,-85.271132
01,069,Houston,Alabama,31.204793,-85.39632
01,071,Jackson,Alabama,34.727289,-85.943552
01,073,Jefferson,Alabama,33.517206,-86.811606
01,075,Lamar,Alabama,33.761275,-88.108771
01,077,Lauderdale,Alabama,34.865524,-87.608858
01,079,Lawrence,Alabama,34.540863,-87.27158
01,081,Lee,Alabama,32.592265,-85.359778
01,083,Limestone,Alabama,34.803982,-86.922366
01,085,Lowndes,Alabama,32.164241,-86.615186
01,087,Macon,Alabama,32.429073,-85.711764
01,089,Madison,Alabama,34.742996,-86.61533
01,091,Marengo,Alabama,32.342372,-87.803475
01,093,Marion,Alabama,34.110448,-87.876476
01,095,Marshall,Alabama,34.311249,-86.291329
01,097,Mobile,Alabama,30.684049,-88.175178
01,099,Monroe,Alabama,31.4988,-87.364576
01,101,Montgomery,Alabama,32.346473,-86.233787
01,103,Morgan,Alabama,34.513887,-86.931981
01,105,Perry,Alabama,32.584881,-87.369738
01,107,Pickens,Alabama,33.284667,-88.074381
01,109,Pike,Alabama,31.786041,-85.946994
01,111,Randolph,Alabama,33.264692,-85.427378
01,113,Russell,Alabama,32.414904,-85.054594
01,115,St. Clair,Alabama,33.660943,-86.374875
01,117,Shelby,Alabama,33.290336,-86.73899
01,119,Sumter,Alabama,32.571003,-88.230925
01,121,Talladega,Alabama,33.376936,-86.165876
01,123,Tallapoosa,Alabama,32.851728,-85.864016
01,125,Tuscaloosa,Alabama,33.214817,-87.518474
01,127,Walker,Alabama,33.834217,-87.250515
01,129,Washington,Alabama,31.413666,-88.195263
01,131,Wilcox,Alabama,32.007448,-87.376912
01,133,Winston,Alabama,34.164369,-87.415624
02,013,Aleutians East,Alaska,54.672887,-163.763729
02,016,Aleutians West,Alaska,54.024627,-168.148047
02,020,Anchorage,Alaska,61.191547,-149.792287
02,050,Bethel,Alaska,60.667568,-162.178288
02,060,Bristol Bay,Alaska,58.733456,-156.833611
02,063,Chugach,Alaska,60.881369,-146.199156
02,066,Copper River,Alaska,62.060769,-145.032939
02,068,Denali,Alaska,63.86431,-149.027498
02,070,Dillingham,Alaska,59.128804,-158.75132
02,090,Fairbanks North Star,Alaska,64.831239,-147.623249
02,100,Haines,Alaska,59.234185,-135.497336
02,105,Hoonah-Angoon,Alaska,58.123876,-135.423534
02,110,Juneau,Alaska,58.360173,-134.533023
02,122,Kenai Peninsula,Alaska,60.283998,-151.068103
02,130,Ketchikan Gateway,Alaska,55.369105,-131.678418
02,150,Kodiak Island,Alaska,57.774607,-152.454785
02,158,Kusilvak,Alaska,62.076819,-164.34049
02,164,Lake and Peninsula,Alaska,58.617154,-156.27339
02,170,Matanuska-Susitna,Alaska,61.607247,-149.432649
02,180,Nome,Alaska,64.431631,-165.269108
02,185,North Slope,Alaska,70.480816,-155.295377
02,188,Northwest Arctic,Alaska,66.897051,-161.582978
02,195,Petersburg,Alaska,56.79507,-132.943575
02,198,Prince of Wales-Hyder,Alaska,55.59077,-132.668824
02,220,Sitka,Alaska,57.062777,-135.335988
02,230,Skagway,Alaska,59.465893,-135.310551
02,240,Southeast Fairbanks,Alaska,63.861551,-144.698751
02,275,Wrangell,Alaska,56.426145,-132.355422
02,282,Yakutat,Alaska,59.545059,-139.714907
02,290,Yukon-Koyukuk,Alaska,64.966051,-152.827744
04,001,Apache,Arizona,35.543654,-109.419015
04,003,Cochise,Arizona,31.603486,-110.072835
04,005,Coconino,Arizona,35.476113,-111.601825
04,007,Gila,Arizona,33.844439,-111.015003
04,009,Graham,Arizona,32.867145,-109.808107
04,011,Greenlee,Arizona,32.985155,-109.259546
04,012,La Paz,Arizona,33.954185,-114.183775
04,013,Maricopa,Arizona,33.490147,-112.044016
04,015,Mohave,Arizona,35.034511,-114.262415
04,017,Navajo,Arizona,34.862151,-110.205157
04,019,Pima,Arizona,32.216427,-110.95803
04,021,Pinal,Arizona,33.069323,-111.602135
04,023,Santa Cruz,Arizona,31.439234,-110.945948
04,025,Yavapai,Arizona,34.628734,-112.273841
04,027,Yuma,Arizona,32.641391,-114.605444
05,001,Arkansas,Arkansas,34.403488,-91.460834
05,003,Ashley,Arkansas,33.17959,-91.877908
05,005,Baxter,Arkansas,36.331791,-92.383935
05,007,Benton,Arkansas,36.335056,-94.230342
05,009,Boone,Arkansas,36.266608,-93.098769
05,011,Bradley,Arkansas,33.574422,-92.101277
05,013,Calhoun,Arkansas,33.585989,-92.500683
05,015,Carroll,Arkansas,36.375744,-93.574712
05,017,Chicot,Arkansas,33.325951,-91.318357
05,019,Clark,Arkansas,34.099325,-93.123962
05,021,Clay,Arkansas,36.370287,-90.366417
05,023,Cleburne,Arkansas,35.507218,-92.037753
05,025,Cleveland,Arkansas,33.912967,-92.136375
05,027,Columbia,Arkansas,33.258766,-93.247178
05,029,Conway,Arkansas,35.21299,-92.705923
05,031,Craighead,Arkansas,35.835762,-90.669235
05,033,Crawford,Arkansas,35.494096,-94.285922
05,035,Crittenden,Arkansas,35.176704,-90.213521
05,037,Cross,Arkansas,35.251667,-90.777424
05,039,Dallas,Arkansas,33.864882,-92.525216
05,041,Desha,Arkansas,33.768029,-91.415165
05,043,Drew,Arkansas,33.627329,-91.784085
05,045,Faulkner,Arkansas,35.105697,-92.406071
05,047,Franklin,Arkansas,35.442155,-93.891039
05,049,Fulton,Arkansas,36.375654,-91.766807
05,051,Garland,Arkansas,34.505767,-93.080729
05,053,Grant,Arkansas,34.311672,-92.412583
05,055,Greene,Arkansas,36.071536,-90.522562
05,057,Hempstead,Arkansas,33.698177,-93.620782
05,059,Hot Spring,Arkansas,34.353569,-92.895511
05,061,Howard,Arkansas,33.981466,-93.908938
05,063,Independence,Arkansas,35.750729,-91.607338
05,065,Izard,Arkansas,36.1215,-91.911716
05,067,Jackson,Arkansas,35.623062,-91.246504
05,069,Jefferson,Arkansas,34.234814,-92.045118
05,071,Johnson,Arkansas,35.476548,-93.473125
05,073,Lafayette,Arkansas,33.278875,-93.557713
05,075,Lawrence,Arkansas,36.070844,-91.064441
05,077,Lee,Arkansas,34.787429,-90.769631
05,079,Lincoln,Arkansas,33.973433,-91.745899
05,081,Little River,Arkansas,33.700349,-94.198663
05,083,Logan,Arkansas,35.227664,-93.768311
05,085,Lonoke,Arkansas,34.916983,-91.973917
05,087,Madison,Arkansas,36.062896,-93.757685
05,089,Marion,Arkansas,36.284395,-92.660219
05,091,Miller,Arkansas,33.402394,-93.987198
05,093,Mississippi,Arkansas,35.843368,-90.001606
05,095,Monroe,Arkansas,34.777063,-91.221516
05,097,Montgomery,Arkansas,34.514568,-93.622447
05,099,Nevada,Arkansas,33.725543,-93.359433
05,101,Newton,Arkansas,35.982591,-93.165658
05,103,Ouachita,Arkansas,33.573847,-92.838686
05,105,Perry,Arkansas,34.998711,-92.777667
05,107,Phillips,Arkansas,34.530919,-90.703802
05,109,Pike,Arkansas,34.186355,-93.626194
05,111,Poinsett,Arkansas,35.604751,-90.558401
05,113,Polk,Arkansas,34.522847,-94.25793
05,115,Pope,Arkansas,35.309054,-93.096833
05,117,Prairie,Arkansas,34.863817,-91.540516
05,119,Pulaski,Arkansas,34.775246,-92.315081
05,121,Randolph,Arkansas,36.302137,-90.989599
05,123,St. Francis,Arkansas,35.016355,-90.774948
05,125,Saline,Arkansas,34.596991,-92.546119
05,127,Scott,Arkansas,34.904224,-94.097007
05,129,Searcy,Arkansas,35.923072,-92.660663
05,131,Sebastian,Arkansas,35.318718,-94.354788
05,133,Sevier,Arkansas,34.015316,-94.30378
05,135,Sharp,Arkansas,36.178093,-91.51953
05,137,Stone,Arkansas,35.855715,-92.133812
05,139,Union,Arkansas,33.207421,-92.65198
05,141,Van Buren,Arkansas,35.568095,-92.42013
05,143,Washington,Arkansas,36.09592,-94.172336
05,145,White,Arkansas,35.239408,-91.773595
05,147,Woodruff,Arkansas,35.233161,-91.251021
05,149,Yell,Arkansas,35.127752,-93.28293
06,001,Alameda,California,37.706599,-122.098766
06,003,Alpine,California,38.728485,-119.847822
06,005,Amador,California,38.395906,-120.778038
06,007,Butte,California,39.658926,-121.72651
06,009,Calaveras,California,38.157342,-120.645222
06,011,Colusa,California,39.153446,-122.083801
06,013,Contra Costa,California,37.93501,-122.024961
06,015,Del Norte,California,41.790833,-124.164236
06,017,El Dorado,California,38.741021,-120.761446
06,019,Fresno,California,36.743848,-119.765291
06,021,Glenn,California,39.665777,-122.179287
06,023,Humboldt,California,40.757636,-124.088127
06,025,Imperial,California,32.841599,-115.540049
06,027,Inyo,California,37.171422,-118.268567
06,029,Kern,California,35.369809,-118.941786
06,031,Kings,California,36.252657,-119.726922
06,033,Lake,California,38.976233,-122.732922
06,035,Lassen,California,40.393749,-120.584467
06,037,Los Angeles,California,34.067886,-118.24599
06,039,Madera,California,37.037074,-120.009796
06,041,Marin,California,37.986474,-122.546657
06,043,Mariposa,California,37.532076,-119.971401
06,045,Mendocino,California,39.285646,-123.394154
06,047,Merced,California,37.274812,-120.628944
06,049,Modoc,California,41.521665,-120.631201
06,051,Mono,California,37.773016,-118.970627
06,053,Monterey,California,36.614681,-121.646692
06,055,Napa,California,38.325108,-122.319983
06,057,Nevada,California,39.220021,-120.915206
06,059,Orange,California,33.732683,-117.858773
06,061,Placer,California,38.839708,-121.198379
06,063,Plumas,California,39.981152,-120.821957
06,065,Riverside,California,33.799274,-117.076969
06,067,Sacramento,California,38.568337,-121.381235
06,069,San Benito,California,36.843074,-121.402614
06,071,San Bernardino,California,34.190969,-117.359766
06,073,San Diego,California,32.884418,-117.112348
06,075,San Francisco,California,37.760569,-122.436499
06,077,San Joaquin,California,37.924541,-121.302289
06,079,San Luis Obispo,California,35.341822,-120.665804
06,081,San Mateo,California,37.563575,-122.339869
06,083,Santa Barbara,California,34.645128,-120.1029
06,085,Santa Clara,California,37.315518,-121.91109
06,087,Santa Cruz,California,36.986338,-121.938739
06,089,Shasta,California,40.578348,-122.300147
06,091,Sierra,California,39.607184,-120.421856
06,093,Siskiyou,California,41.572743,-122.493725
06,095,Solano,California,38.236295,-122.067272
06,097,Sonoma,California,38.412281,-122.720368
06,099,Stanislaus,California,37.618447,-120.955882
06,101,Sutter,California,39.137197,-121.643973
06,103,Tehama,California,40.114795,-122.219057
06,105,Trinity,California,40.629982,-123.096608
06,107,Tulare,California,36.254134,-119.23454
06,109,Tuolumne,California,37.972006,-120.325224
06,111,Ventura,California,34.242809,-119.025486
06,113,Yolo,California,38.598163,-121.718874
06,115,Yuba,California,39.131905,-121.510607
08,001,Adams,Colorado,39.876949,-104.920943
08,003,Alamosa,Colorado,37.481888,-105.877629
08,005,Arapahoe,Colorado,39.646582,-104.838574
08,007,Archuleta,Colorado,37.240274,-107.089808
08,009,Baca,Colorado,37.368105,-102.53204
08,011,Bent,Colorado,38.072919,-103.166006
08,013,Boulder,Colorado,40.062992,-105.180215
08,014,Broomfield,Colorado,39.939871,-105.058131
08,015,Chaffee,Colorado,38.676811,-106.085131
08,017,Cheyenne,Colorado,38.817655,-102.470052
08,019,Clear Creek,Colorado,39.713458,-105.532527
08,021,Conejos,Colorado,37.199613,-105.987323
08,023,Costilla,Colorado,37.29223,-105.444296
08,025,Crowley,Colorado,38.193783,-103.856387
08,027,Custer,Colorado,38.133198,-105.382527
08,029,Delta,Colorado,38.798198,-107.913769
08,031,Denver,Colorado,39.72486,-104.950033
08,033,Dolores,Colorado,37.746934,-108.758724
08,035,Douglas,Colorado,39.482023,-104.87357
08,037,Eagle,Colorado,39.600516,-106.733421
08,039,Elbert,Colorado,39.388552,-104.52311
08,041,El Paso,Colorado,38.877314,-104.75212
08,043,Fremont,Colorado,38.426941,-105.214303
08,045,Garfield,Colorado,39.507103,-107.549019
08,047,Gilpin,Colorado,39.856062,-105.483217
08,049,Grand,Colorado,40.051143,-105.978501
08,051,Gunnison,Colorado,38.660002,-106.944384
08,053,Hinsdale,Colorado,38.002552,-107.29875
08,055,Huerfano,Colorado,37.612538,-104.887584
08,057,Jackson,Colorado,40.690192,-106.295485
08,059,Jefferson,Colorado,39.72369,-105.130309
08,061,Kiowa,Colorado,38.470085,-102.700966
08,063,Kit Carson,Colorado,39.310418,-102.462031
08,065,Lake,Colorado,39.244814,-106.30747
08,067,La Plata,Colorado,37.266021,-107.803947
08,069,Larimer,Colorado,40.504402,-105.089155
08,071,Las Animas,Colorado,37.192053,-104.501324
08,073,Lincoln,Colorado,39.180049,-103.614219
08,075,Logan,Colorado,40.64034,-103.185977
08,077,Mesa,Colorado,39.092942,-108.546673
08,079,Mineral,Colorado,37.779142,-106.942063
08,081,Moffat,Colorado,40.51606,-107.613977
08,083,Montezuma,Colorado,37.371913,-108.554458
08,085,Montrose,Colorado,38.481301,-107.922349
08,087,Morgan,Colorado,40.254229,-103.789071
08,089,Otero,Colorado,38.023236,-103.655776
08,091,Ouray,Colorado,38.146044,-107.751894
08,093,Park,Colorado,39.305737,-105.625362
08,095,Phillips,Colorado,40.599356,-102.385877
08,097,Pitkin,Colorado,39.231757,-106.908716
08,099,Prowers,Colorado,38.083029,-102.548624
08,101,Pueblo,Colorado,38.265773,-104.646976
08,103,Rio Blanco,Colorado,40.05108,-108.268744
08,105,Rio Grande,Colorado,37.61185,-106.242067
08,107,Routt,Colorado,40.455504,-106.89741
08,109,Saguache,Colorado,37.925349,-106.006105
08,111,San Juan,Colorado,37.801877,-107.673598
08,113,San Miguel,Colorado,37.971818,-107.958108
08,115,Sedgwick,Colorado,40.962161,-102.325673
08,117,Summit,Colorado,39.572383,-106.055673
08,119,Teller,Colorado,38.944782,-105.139899
08,121,Washington,Colorado,40.098312,-103.157119
08,123,Weld,Colorado,40.322426,-104.807009
08,125,Yuma,Colorado,40.065848,-102.480825
09,001,Fairfield,Connecticut,41.206021,-73.367214
09,003,Hartford,Connecticut,41.761165,-72.717868
09,005,Litchfield,Connecticut,41.726958,-73.190432
09,007,Middlesex,Connecticut,41.479018,-72.571631
09,009,New Haven,Connecticut,41.396593,-72.942327
09,011,New London,Connecticut,41.443271,-72.097543
09,013,Tolland,Connecticut,41.842288,-72.372969
09,015,Windham,Connecticut,41.80508,-71.993508
10,001,Kent,Delaware,39.127081,-75.55913
10,003,New Castle,Delaware,39.678852,-75.63529
10,005,Sussex,Delaware,38.661794,-75.331473
11,001,District of Columbia,District of Columbia,38.910168,-77.013993
12,001,Alachua,Florida,29.664721,-82.391582
12,003,Baker,Florida,30.286374,-82.184536
12,005,Bay,Florida,30.21282,-85.670601
12,007,Bradford,Florida,29.949896,-82.128265
12,009,Brevard,Florida,28.225111,-80.690892
12,011,Broward,Florida,26.135399,-80.226976
12,013,Calhoun,Florida,30.464333,-85.125841
12,015,Charlotte,Florida,26.953831,-82.117344
12,017,Citrus,Florida,28.865585,-82.455213
12,019,Clay,Florida,30.087758,-81.800487
12,021,Collier,Florida,26.203653,-81.69257
12,023,Columbia,Florida,30.122022,-82.664496
12,027,DeSoto,Florida,27.1868,-81.87051
12,029,Dixie,Florida,29.634593,-83.058664
12,031,Duval,Florida,30.298646,-81.620436
12,033,Escambia,Florida,30.485666,-87.277106
12,035,Flagler,Florida,29.521471,-81.222102
12,037,Franklin,Florida,29.785968,-84.813247
12,039,Gadsden,Florida,30.593632,-84.571737
12,041,Gilchrist,Florida,29.705263,-82.808104
12,043,Glades,Florida,26.897019,-81.189563
12,045,Gulf,Florida,29.955584,-85.259724
12,047,Hamilton,Florida,30.501436,-82.999025
12,049,Hardee,Florida,27.548142,-81.816969
12,051,Hendry,Florida,26.726562,-81.216144
12,053,Hernando,Florida,28.504446,-82.497025
12,055,Highlands,Florida,27.462632,-81.444816
12,057,Hillsborough,Florida,27.967264,-82.39857
12,059,Holmes,Florida,30.847037,-85.754664
12,061,Indian River,Florida,27.671332,-80.440738
12,063,Jackson,Florida,30.797248,-85.218988
12,065,Jefferson,Florida,30.502892,-83.89133
12,067,Lafayette,Florida,30.063591,-83.176369
12,069,Lake,Florida,28.716853,-81.750668
12,071,Lee,Florida,26.576019,-81.851845
12,073,Leon,Florida,30.466102,-84.269682
12,075,Levy,Florida,29.380119,-82.662921
12,077,Liberty,Florida,30.399108,-84.907135
12,079,Madison,Florida,30.472359,-83.425943
12,081,Manatee,Florida,27.478313,-82.520478
12,083,Marion,Florida,29.135817,-82.126125
12,085,Martin,Florida,27.145869,-80.245706
12,086,Miami-Dade,Florida,25.769326,-80.30118
12,087,Monroe,Florida,24.747427,-81.244796
12,089,Nassau,Florida,30.608318,-81.63434
12,091,Okaloosa,Florida,30.551645,-86.565567
12,093,Okeechobee,Florida,27.271934,-80.824315
12,095,Orange,Florida,28.526077,-81.388371
12,097,Osceola,Florida,28.269056,-81.39037
12,099,Palm Beach,Florida,26.616523,-80.143701
12,101,Pasco,Florida,28.258217,-82.51024
12,103,Pinellas,Florida,27.900189,-82.727015
12,105,Polk,Florida,28.042479,-81.786864
12,107,Putnam,Florida,29.60923,-81.721195
12,109,St. Johns,Florida,29.991793,-81.434924
12,111,St. Lucie,Florida,27.333592,-80.357144
12,113,Santa Rosa,Florida,30.547226,-87.035767
12,115,Sarasota,Florida,27.201139,-82.416033
12,117,Seminole,Florida,28.699171,-81.310073
12,119,Sumter,Florida,28.83348,-82.024754
12,121,Suwannee,Florida,30.213664,-82.985113
12,123,Taylor,Florida,30.056859,-83.590349
12,125,Union,Florida,30.011442,-82.35769
12,127,Volusia,Florida,29.072351,-81.126278
12,129,Wakulla,Florida,30.187394,-84.332906
12,131,Walton,Florida,30.543793,-86.19019
12,133,Washington,Florida,30.649403,-85.62387
13,001,Appling,Georgia,31.770708,-82.338755
13,003,Atkinson,Georgia,31.317495,-82.878111
13,005,Bacon,Georgia,31.547,-82.46609
13,007,Baker,Georgia,31.31096,-84.433608
13,009,Baldwin,Georgia,33.085482,-83.243621
13,011,Banks,Georgia,34.349158,-83.507471
13,013,Barrow,Georgia,33.992491,-83.728597
13,015,Bartow,Georgia,34.208535,-84.829148
13,017,Ben Hill,Georgia,31.727139,-83.24814
13,019,Berrien,Georgia,31.233472,-83.251763
13,021,Bibb,Georgia,32.834626,-83.690072
13,023,Bleckley,Georgia,32.401506,-83.332183
13,025,Brantley,Georgia,31.217234,-81.970017
13,027,Brooks,Georgia,30.841118,-83.54227
13,029,Bryan,Georgia,31.958731,-81.353407
13,031,Bulloch,Georgia,32.415313,-81.762378
13,033,Burke,Georgia,33.103215,-82.002339
13,035,Butts,Georgia,33.294854,-83.972919
13,037,Calhoun,Georgia,31.526143,-84.662951
13,039,Camden,Georgia,30.812543,-81.631375
13,043,Candler,Georgia,32.399154,-82.060428
13,045,Carroll,Georgia,33.623974,-85.043815
13,047,Catoosa,Georgia,34.928524,-85.172189
13,049,Charlton,Georgia,30.786554,-82.024244
13,051,Chatham,Georgia,32.043151,-81.136643
13,053,Chattahoochee,Georgia,32.342797,-84.896374
13,055,Chattooga,Georgia,34.496004,-85.344042
13,057,Cherokee,Georgia,34.170504,-84.494745
13,059,Clarke,Georgia,33.950374,-83.381417
13,061,Clay,Georgia,31.634951,-85.014589
13,063,Clayton,Georgia,33.551579,-84.361187
13,065,Clinch,Georgia,31.021262,-82.744401
13,067,Cobb,Georgia,33.941801,-84.557976
13,069,Coffee,Georgia,31.515718,-82.838428
13,071,Colquitt,Georgia,31.179661,-83.767871
13,073,Columbia,Georgia,33.514668,-82.175338
13,075,Cook,Georgia,31.148353,-83.423804
13,077,Coweta,Georgia,33.377998,-84.73346
13,079,Crawford,Georgia,32.706715,-83.930196
13,081,Crisp,Georgia,31.949314,-83.778048
13,083,Dade,Georgia,34.881193,-85.497925
13,085,Dawson,Georgia,34.400246,-84.102212
13,087,Decatur,Georgia,30.889772,-84.569999
13,089,DeKalb,Georgia,33.790223,-84.247613
13,091,Dodge,Georgia,32.212397,-83.173704
13,093,Dooly,Georgia,32.170176,-83.78074
13,095,Dougherty,Georgia,31.574147,-84.171202
13,097,Douglas,Georgia,33.724594,-84.735518
13,099,Early,Georgia,31.335623,-84.919905
13,101,Echols,Georgia,30.712259,-83.050326
13,103,Effingham,Georgia,32.287329,-81.299809
13,105,Elbert,Georgia,34.128394,-82.880506
13,107,Emanuel,Georgia,32.586625,-82.306411
13,109,Evans,Georgia,32.168708,-81.906627
13,111,Fannin,Georgia,34.902937,-84.312915
13,113,Fayette,Georgia,33.428121,-84.513188
13,115,Floyd,Georgia,34.256222,-85.183346
13,117,Forsyth,Georgia,34.190488,-84.150182
13,119,Franklin,Georgia,34.378121,-83.186359
13,121,Fulton,Georgia,33.832534,-84.396191
13,123,Gilmer,Georgia,34.675112,-84.486082
13,125,Glascock,Georgia,33.236629,-82.60966
13,127,Glynn,Georgia,31.202596,-81.486211
13,129,Gordon,Georgia,34.498248,-84.907765
13,131,Grady,Georgia,30.881836,-84.212447
13,133,Greene,Georgia,33.535248,-83.179388
13,135,Gwinnett,Georgia,33.954137,-84.053177
13,137,Habersham,Georgia,34.565656,-83.541387
13,139,Hall,Georgia,34.26936,-83.847644
13,141,Hancock,Georgia,33.254841,-83.01325
13,143,Haralson,Georgia,33.760719,-85.184723
13,145,Harris,Georgia,32.69754,-84.894283
13,147,Hart,Georgia,34.355547,-82.964995
13,149,Heard,Georgia,33.307964,-85.116748
13,151,Henry,Georgia,33.470292,-84.174632
13,153,Houston,Georgia,32.565757,-83.663692
13,155,Irwin,Georgia,31.604345,-83.27986
13,157,Jackson,Georgia,34.129495,-83.599045
13,159,Jasper,Georgia,33.358288,-83.726512
13,161,Jeff Davis,Georgia,31.847814,-82.600257
13,163,Jefferson,Georgia,33.06898,-82.408116
13,165,Jenkins,Georgia,32.789871,-81.947165
13,167,Johnson,Georgia,32.699439,-82.684511
13,169,Jones,Georgia,32.961196,-83.550237
13,171,Lamar,Georgia,33.084155,-84.154394
13,173,Lanier,Georgia,31.037307,-83.097639
13,175,Laurens,Georgia,32.517494,-82.925405
13,177,Lee,Georgia,31.680634,-84.177116
13,179,Liberty,Georgia,31.828772,-81.5777
13,181,Lincoln,Georgia,33.780601,-82.445454
13,183,Long,Georgia,31.775868,-81.731661
13,185,Lowndes,Georgia,30.860299,-83.281437
13,187,Lumpkin,Georgia,34.524477,-83.988151
13,189,McDuffie,Georgia,33.459579,-82.468712
13,191,McIntosh,Georgia,31.480147,-81.405656
13,193,Macon,Georgia,32.324124,-84.039478
13,195,Madison,Georgia,34.101336,-83.240303
13,197,Marion,Georgia,32.382601,-84.524649
13,199,Meriwether,Georgia,33.016626,-84.675396
13,201,Miller,Georgia,31.160435,-84.738302
13,205,Mitchell,Georgia,31.218188,-84.171176
13,207,Monroe,Georgia,33.037037,-83.909101
13,209,Montgomery,Georgia,32.173336,-82.52948
13,211,Morgan,Georgia,33.600047,-83.485701
13,213,Murray,Georgia,34.781729,-84.79164
13,215,Muscogee,Georgia,32.495642,-84.928926
13,217,Newton,Georgia,33.570575,-83.898026
13,219,Oconee,Georgia,33.876988,-83.464103
13,221,Oglethorpe,Georgia,33.918851,-83.147433
13,223,Paulding,Georgia,33.913898,-84.814237
13,225,Peach,Georgia,32.589118,-83.822766
13,227,Pickens,Georgia,34.455831,-84.436004
13,229,Pierce,Georgia,31.313022,-82.242367
13,231,Pike,Georgia,33.10478,-84.366582
13,233,Polk,Georgia,34.010871,-85.174625
13,235,Pulaski,Georgia,32.273393,-83.478958
13,237,Putnam,Georgia,33.319719,-83.335457
13,239,Quitman,Georgia,31.859563,-85.078114
13,241,Rabun,Georgia,34.879707,-83.407047
13,243,Randolph,Georgia,31.758591,-84.758082
13,245,Richmond,Georgia,33.427932,-82.051886
13,247,Rockdale,Georgia,33.642136,-84.019225
13,249,Schley,Georgia,32.241832,-84.306635
13,251,Screven,Georgia,32.722235,-81.629825
13,253,Seminole,Georgia,30.967903,-84.866698
13,255,Spalding,Georgia,33.258944,-84.271569
13,257,Stephens,Georgia,34.558402,-83.289701
13,259,Stewart,Georgia,32.068608,-84.758019
13,261,Sumter,Georgia,32.061409,-84.222402
13,263,Talbot,Georgia,32.700716,-84.58298
13,265,Taliaferro,Georgia,33.568965,-82.886099
13,267,Tattnall,Georgia,32.036453,-82.058473
13,269,Taylor,Georgia,32.559079,-84.209743
13,271,Telfair,Georgia,32.019316,-82.894969
13,273,Terrell,Georgia,31.77202,-84.429026
13,275,Thomas,Georgia,30.86927,-83.947978
13,277,Tift,Georgia,31.455071,-83.513873
13,279,Toombs,Georgia,32.185481,-82.368674
13,281,Towns,Georgia,34.940026,-83.782885
13,283,Treutlen,Georgia,32.387282,-82.589236
13,285,Troup,Georgia,33.038124,-85.029721
13,287,Turner,Georgia,31.70277,-83.638274
13,289,Twiggs,Georgia,32.702269,-83.416707
13,291,Union,Georgia,34.87746,-84.004818
13,293,Upson,Georgia,32.90722,-84.325253
13,295,Walker,Georgia,34.838709,-85.293092
13,297,Walton,Georgia,33.795968,-83.785302
13,299,Ware,Georgia,31.226953,-82.383829
13,301,Warren,Georgia,33.406673,-82.661562
13,303,Washington,Georgia,32.964333,-82.775581
13,305,Wayne,Georgia,31.61057,-81.916558
13,307,Webster,Georgia,32.05245,-84.561824
13,309,Wheeler,Georgia,32.147523,-82.756158
13,311,White,Georgia,34.599638,-83.743731
13,313,Whitfield,Georgia,34.793647,-84.966305
13,315,Wilcox,Georgia,31.975538,-83.409194
13,317,Wilkes,Georgia,33.757224,-82.752748
13,319,Wilkinson,Georgia,32.843967,-83.239243
13,321,Worth,Georgia,31.545333,-83.85916
15,001,Hawaii,Hawaii,19.672735,-155.428067
15,003,Honolulu,Hawaii,21.371521,-157.917219
15,005,Kalawao,Hawaii,21.189607,-156.982059
15,007,Kauai,Hawaii,22.019834,-159.438951
15,009,Maui,Hawaii,20.862853,-156.491993
16,001,Ada,Idaho,43.612091,-116.313143
16,003,Adams,Idaho,44.843883,-116.383254
16,005,Bannock,Idaho,42.871117,-112.425092
16,007,Bear Lake,Idaho,42.307481,-111.34121
16,009,Benewah,Idaho,47.273057,-116.644633
16,011,Bingham,Idaho,43.223106,-112.346259
16,013,Blaine,Idaho,43.548124,-114.299016
16,015,Boise,Idaho,43.90651,-115.985316
16,017,Bonner,Idaho,48.23649,-116.630197
16,019,Bonneville,Idaho,43.494825,-111.994434
16,021,Boundary,Idaho,48.710599,-116.302645
16,023,Butte,Idaho,43.697316,-113.30219
16,025,Camas,Idaho,43.352907,-114.754454
16,027,Canyon,Idaho,43.612485,-116.625046
16,029,Caribou,Idaho,42.646162,-111.652123
16,031,Cassia,Idaho,42.487358,-113.747762
16,033,Clark,Idaho,44.194725,-112.262134
16,035,Clearwater,Idaho,46.489093,-116.190755
16,037,Custer,Idaho,44.280306,-114.096283
16,039,Elmore,Idaho,43.117658,-115.685056
16,041,Franklin,Idaho,42.098212,-111.871828
16,043,Fremont,Idaho,44.012878,-111.616883
16,045,Gem,Idaho,43.883064,-116.507732
16,047,Gooding,Idaho,42.853491,-114.750399
16,049,Idaho,Idaho,45.972026,-116.105519
16,051,Jefferson,Idaho,43.68709,-111.959043
16,053,Jerome,Idaho,42.699506,-114.464966
16,055,Kootenai,Idaho,47.738595,-116.837402
16,057,Latah,Idaho,46.742589,-116.934836
16,059,Lemhi,Idaho,45.130443,-113.86099
16,061,Lewis,Idaho,46.237559,-116.264039
16,063,Lincoln,Idaho,42.971703,-114.333319
16,065,Madison,Idaho,43.819187,-111.793855
16,067,Minidoka,Idaho,42.611171,-113.712634
16,069,Nez Perce,Idaho,46.393945,-116.952097
16,071,Oneida,Idaho,42.18223,-112.295487
16,073,Owyhee,Idaho,43.393385,-116.704658
16,075,Payette,Idaho,44.019562,-116.893339
16,077,Power,Idaho,42.774583,-112.827325
16,079,Shoshone,Idaho,47.514916,-116.091781
16,081,Teton,Idaho,43.692414,-111.122065
16,083,Twin Falls,Idaho,42.56026,-114.499626
16,085,Valley,Idaho,44.766234,-116.074739
16,087,Washington,Idaho,44.29827,-116.92098
17,001,Adams,Illinois,39.943853,-91.327397
17,003,Alexander,Illinois,37.152943,-89.294878
17,005,Bond,Illinois,38.884765,-89.432041
17,007,Boone,Illinois,42.294302,-88.852137
17,009,Brown,Illinois,39.966021,-90.747509
17,011,Bureau,Illinois,41.382406,-89.420549
17,013,Calhoun,Illinois,39.122999,-90.638209
17,015,Carroll,Illinois,42.067256,-89.969163
17,017,Cass,Illinois,39.98041,-90.320947
17,019,Champaign,Illinois,40.126856,-88.23646
17,021,Christian,Illinois,39.525376,-89.254079
17,023,Clark,Illinois,39.351511,-87.796198
17,025,Clay,Illinois,38.715726,-88.49181
17,027,Clinton,Illinois,38.588708,-89.485747
17,029,Coles,Illinois,39.487996,-88.264625
17,031,Cook,Illinois,41.869515,-87.757998
17,033,Crawford,Illinois,39.004797,-87.750005
17,035,Cumberland,Illinois,39.275024,-88.280686
17,037,DeKalb,Illinois,41.927566,-88.726804
17,039,De Witt,Illinois,40.170876,-88.911355
17,041,Douglas,Illinois,39.766979,-88.280371
17,043,DuPage,Illinois,41.848928,-88.071268
17,045,Edgar,Illinois,39.636396,-87.713766
17,047,Edwards,Illinois,38.401606,-88.041233
17,049,Effingham,Illinois,39.095854,-88.573292
17,051,Fayette,Illinois,38.995881,-89.033955
17,053,Ford,Illinois,40.521655,-88.219432
17,055,Franklin,Illinois,37.963987,-88.953694
17,057,Fulton,Illinois,40.524812,-90.116575
17,059,Gallatin,Illinois,37.772903,-88.239193
17,061,Greene,Illinois,39.368918,-90.371192
17,063,Grundy,Illinois,41.34999,-88.344624
17,065,Hamilton,Illinois,38.091614,-88.558979
17,067,Hancock,Illinois,40.425023,-91.202357
17,069,Hardin,Illinois,37.478271,-88.295955
17,071,Henderson,Illinois,40.824767,-90.944727
17,073,Henry,Illinois,41.350891,-90.1358
17,075,Iroquois,Illinois,40.762253,-87.838453
17,077,Jackson,Illinois,37.750199,-89.277101
17,079,Jasper,Illinois,39.003923,-88.162638
17,081,Jefferson,Illinois,38.311195,-88.911598
17,083,Jersey,Illinois,39.075249,-90.319327
17,085,Jo Daviess,Illinois,42.411305,-90.308466
17,087,Johnson,Illinois,37.470122,-88.876484
17,089,Kane,Illinois,41.928443,-88.33542
17,091,Kankakee,Illinois,41.150459,-87.851699
17,093,Kendall,Illinois,41.66076,-88.375603
17,095,Knox,Illinois,40.937986,-90.327754
17,097,Lake,Illinois,42.311645,-87.970527
17,099,LaSalle,Illinois,41.354304,-88.895139
17,101,Lawrence,Illinois,38.718154,-87.745966
17,103,Lee,Illinois,41.812143,-89.401894
17,105,Livingston,Illinois,40.90184,-88.576241
17,107,Logan,Illinois,40.141565,-89.361411
17,109,McDonough,Illinois,40.469965,-90.667814
17,111,McHenry,Illinois,42.270305,-88.351365
17,113,McLean,Illinois,40.493799,-88.953797
17,115,Macon,Illinois,39.850646,-88.946554
17,117,Macoupin,Illinois,39.191697,-89.877091
17,119,Madison,Illinois,38.801004,-90.012645
17,121,Marion,Illinois,38.590624,-89.016141
17,123,Marshall,Illinois,41.043266,-89.316199
17,125,Mason,Illinois,40.286175,-89.899393
17,127,Massac,Illinois,37.18088,-88.717761
17,129,Menard,Illinois,39.996935,-89.799159
17,131,Mercer,Illinois,41.214503,-90.686612
17,133,Monroe,Illinois,38.362245,-90.171982
17,135,Montgomery,Illinois,39.198374,-89.507428
17,137,Morgan,Illinois,39.717059,-90.22838
17,139,Moultrie,Illinois,39.631716,-88.612657
17,141,Ogle,Illinois,42.028664,-89.25403
17,143,Peoria,Illinois,40.746692,-89.639949
17,145,Perry,Illinois,38.057689,-89.3224
17,147,Piatt,Illinois,40.008986,-88.581901
17,149,Pike,Illinois,39.621897,-90.861323
17,151,Pope,Illinois,37.400771,-88.555783
17,153,Pulaski,Illinois,37.198544,-89.130564
17,155,Putnam,Illinois,41.230538,-89.2681
17,157,Randolph,Illinois,38.061445,-89.809741
17,159,Richland,Illinois,38.725443,-88.08785
17,161,Rock Island,Illinois,41.489119,-90.502512
17,163,St. Clair,Illinois,38.548186,-89.990225
17,165,Saline,Illinois,37.753419,-88.538134
17,167,Sangamon,Illinois,39.771106,-89.654882
17,169,Schuyler,Illinois,40.130099,-90.568789
17,171,Scott,Illinois,39.645952,-90.461992
17,173,Shelby,Illinois,39.399379,-88.800594
17,175,Stark,Illinois,41.098391,-89.791981
17,177,Stephenson,Illinois,42.324957,-89.643639
17,179,Tazewell,Illinois,40.605153,-89.530221
17,181,Union,Illinois,37.469028,-89.234288
17,183,Vermilion,Illinois,40.151056,-87.655499
17,185,Wabash,Illinois,38.431889,-87.788862
17,187,Warren,Illinois,40.890671,-90.636753
17,189,Washington,Illinois,38.360726,-89.395405
17,191,Wayne,Illinois,38.408213,-88.421765
17,193,White,Illinois,38.088921,-88.196465
17,195,Whiteside,Illinois,41.781958,-89.82525
17,197,Will,Illinois,41.565502,-88.058558
17,199,Williamson,Illinois,37.754392,-88.976636
17,201,Winnebago,Illinois,42.308321,-89.060442
17,203,Woodford,Illinois,40.76916,-89.29163
18,001,Adams,Indiana,40.749532,-84.934318
18,003,Allen,Indiana,41.100842,-85.125233
18,005,Bartholomew,Indiana,39.215015,-85.905294
18,007,Benton,Indiana,40.576258,-87.291866
18,009,Blackford,Indiana,40.468109,-85.345621
18,011,Boone,Indiana,40.004643,-86.383249
18,013,Brown,Indiana,39.236665,-86.208688
18,015,Carroll,Indiana,40.579184,-86.601213
18,017,Cass,Indiana,40.747129,-86.338974
18,019,Clark,Indiana,38.373412,-85.732548
18,021,Clay,Indiana,39.469332,-87.123964
18,023,Clinton,Indiana,40.297795,-86.513556
18,025,Crawford,Indiana,38.315739,-86.422116
18,027,Daviess,Indiana,38.697526,-87.096158
18,029,Dearborn,Indiana,39.14676,-84.920533
18,031,Decatur,Indiana,39.320693,-85.493081
18,033,DeKalb,Indiana,41.377157,-85.034535
18,035,Delaware,Indiana,40.20524,-85.402908
18,037,Dubois,Indiana,38.35868,-86.915674
18,039,Elkhart,Indiana,41.637245,-85.905688
18,041,Fayette,Indiana,39.64037,-85.147252
18,043,Floyd,Indiana,38.32223,-85.857888
18,045,Fountain,Indiana,40.14941,-87.274375
18,047,Franklin,Indiana,39.398519,-85.070967
18,049,Fulton,Indiana,41.059339,-86.217151
18,051,Gibson,Indiana,38.305848,-87.549447
18,053,Grant,Indiana,40.525256,-85.644184
18,055,Greene,Indiana,39.052523,-86.994152
18,057,Hamilton,Indiana,40.001506,-86.057612
18,059,Hancock,Indiana,39.815247,-85.829626
18,061,Harrison,Indiana,38.234174,-86.098168
18,063,Hendricks,Indiana,39.773147,-86.41108
18,065,Henry,Indiana,39.928844,-85.403738
18,067,Howard,Indiana,40.470296,-86.133562
18,069,Huntington,Indiana,40.869855,-85.486182
18,071,Jackson,Indiana,38.928711,-85.936294
18,073,Jasper,Indiana,41.082454,-87.150606
18,075,Jay,Indiana,40.430767,-85.028696
18,077,Jefferson,Indiana,38.758699,-85.433151
18,079,Jennings,Indiana,39.005508,-85.649705
18,081,Johnson,Indiana,39.555913,-86.115187
18,083,Knox,Indiana,38.699306,-87.454832
18,085,Kosciusko,Indiana,41.267835,-85.830509
18,087,LaGrange,Indiana,41.632874,-85.467264
18,089,Lake,Indiana,41.518998,-87.407505
18,091,LaPorte,Indiana,41.632279,-86.791226
18,093,Lawrence,Indiana,38.847818,-86.495942
18,095,Madison,Indiana,40.113496,-85.7088
18,097,Marion,Indiana,39.788896,-86.136268
18,099,Marshall,Indiana,41.347653,-86.272256
18,101,Martin,Indiana,38.679659,-86.850513
18,103,Miami,Indiana,40.729384,-86.076111
18,105,Monroe,Indiana,39.162275,-86.53857
18,107,Montgomery,Indiana,40.034526,-86.90058
18,109,Morgan,Indiana,39.512934,-86.399124
18,111,Newton,Indiana,40.999168,-87.38049
18,113,Noble,Indiana,41.415849,-85.388959
18,115,Ohio,Indiana,38.954376,-84.909987
18,117,Orange,Indiana,38.562253,-86.495955
18,119,Owen,Indiana,39.314578,-86.798175
18,121,Parke,Indiana,39.757908,-87.225163
18,123,Perry,Indiana,38.008616,-86.705505
18,125,Pike,Indiana,38.427019,-87.233088
18,127,Porter,Indiana,41.513979,-87.104333
18,129,Posey,Indiana,38.012717,-87.819868
18,131,Pulaski,Indiana,41.051366,-86.684796
18,133,Putnam,Indiana,39.646449,-86.834304
18,135,Randolph,Indiana,40.169491,-84.996903
18,137,Ripley,Indiana,39.160663,-85.219308
18,139,Rush,Indiana,39.62209,-85.475672
18,141,St. Joseph,Indiana,41.67642,-86.227079
18,143,Scott,Indiana,38.697942,-85.764092
18,145,Shelby,Indiana,39.535011,-85.790065
18,147,Spencer,Indiana,38.019216,-87.009078
18,149,Starke,Indiana,41.281734,-86.632742
18,151,Steuben,Indiana,41.650003,-85.010961
18,153,Sullivan,Indiana,39.103793,-87.393185
18,155,Switzerland,Indiana,38.816976,-85.023673
18,157,Tippecanoe,Indiana,40.418699,-86.886959
18,159,Tipton,Indiana,40.307543,-86.051278
18,161,Union,Indiana,39.618364,-84.919464
18,163,Vanderburgh,Indiana,37.998233,-87.549603
18,165,Vermillion,Indiana,39.759924,-87.439022
18,167,Vigo,Indiana,39.460456,-87.386916
18,169,Wabash,Indiana,40.855768,-85.80421
18,171,Warren,Indiana,40.312721,-87.325412
18,173,Warrick,Indiana,38.011051,-87.355616
18,175,Washington,Indiana,38.573362,-86.084553
18,177,Wayne,Indiana,39.843304,-84.948672
18,179,Wells,Indiana,40.770773,-85.192988
18,181,White,Indiana,40.753581,-86.809953
18,183,Whitley,Indiana,41.16305,-85.478007
19,001,Adair,Iowa,41.347726,-94.478337
19,003,Adams,Iowa,41.007205,-94.708824
19,005,Allamakee,Iowa,43.252971,-91.42476
19,007,Appanoose,Iowa,40.741265,-92.864741
19,009,Audubon,Iowa,41.675888,-94.925428
19,011,Benton,Iowa,42.063318,-92.013283
19,013,Black Hawk,Iowa,42.490207,-92.37179
19,015,Boone,Iowa,42.026222,-93.892211
19,017,Bremer,Iowa,42.740346,-92.380697
19,019,Buchanan,Iowa,42.48513,-91.901131
19,021,Buena Vista,Iowa,42.676707,-95.184296
19,023,Butler,Iowa,42.701602,-92.758281
19,025,Calhoun,Iowa,42.39777,-94.623179
19,027,Carroll,Iowa,42.039462,-94.867701
19,029,Cass,Iowa,41.366511,-94.977692
19,031,Cedar,Iowa,41.756011,-91.140408
19,033,Cerro Gordo,Iowa,43.135216,-93.246108
19,035,Cherokee,Iowa,42.751225,-95.591928
19,037,Chickasaw,Iowa,43.038731,-92.342847
19,039,Clarke,Iowa,41.034767,-93.783479
19,041,Clay,Iowa,43.127358,-95.159344
19,043,Clayton,Iowa,42.860684,-91.321147
19,045,Clinton,Iowa,41.852141,-90.341168
19,047,Crawford,Iowa,42.026692,-95.357436
19,049,Dallas,Iowa,41.630722,-93.900543
19,051,Davis,Iowa,40.762546,-92.418316
19,053,Decatur,Iowa,40.7123,-93.817156
19,055,Delaware,Iowa,42.48163,-91.383936
19,057,Des Moines,Iowa,40.83528,-91.143256
19,059,Dickinson,Iowa,43.38895,-95.134559
19,061,Dubuque,Iowa,42.493173,-90.762214
19,063,Emmet,Iowa,43.395995,-94.75827
19,065,Fayette,Iowa,42.821543,-91.855739
19,067,Floyd,Iowa,43.075228,-92.751434
19,069,Franklin,Iowa,42.754609,-93.239282
19,071,Fremont,Iowa,40.753741,-95.616798
19,073,Greene,Iowa,42.029106,-94.379863
19,075,Grundy,Iowa,42.38048,-92.747282
19,077,Guthrie,Iowa,41.665841,-94.427696
19,079,Hamilton,Iowa,42.406603,-93.767427
19,081,Hancock,Iowa,43.092315,-93.702667
19,083,Hardin,Iowa,42.436346,-93.217038
19,085,Harrison,Iowa,41.662599,-95.804583
19,087,Henry,Iowa,40.977985,-91.536884
19,089,Howard,Iowa,43.361965,-92.229351
19,091,Humboldt,Iowa,42.746569,-94.216619
19,093,Ida,Iowa,42.393275,-95.505465
19,095,Iowa,Iowa,41.701018,-92.039155
19,097,Jackson,Iowa,42.141479,-90.567662
19,099,Jasper,Iowa,41.678059,-93.07144
19,101,Jefferson,Iowa,41.012603,-91.965861
19,103,Johnson,Iowa,41.683586,-91.561276
19,105,Jones,Iowa,42.138136,-91.200472
19,107,Keokuk,Iowa,41.324433,-92.175248
19,109,Kossuth,Iowa,43.143301,-94.221432
19,111,Lee,Iowa,40.560697,-91.397062
19,113,Linn,Iowa,42.008474,-91.648394
19,115,Louisa,Iowa,41.225335,-91.262686
19,117,Lucas,Iowa,41.022123,-93.312466
19,119,Lyon,Iowa,43.385476,-96.227291
19,121,Madison,Iowa,41.348667,-93.98679
19,123,Mahaska,Iowa,41.311761,-92.642105
19,125,Marion,Iowa,41.357267,-93.041728
19,127,Marshall,Iowa,42.030436,-92.938199
19,129,Mills,Iowa,41.050907,-95.693715
19,131,Mitchell,Iowa,43.334549,-92.806056
19,133,Monona,Iowa,42.062617,-95.988925
19,135,Monroe,Iowa,41.03376,-92.825189
19,137,Montgomery,Iowa,41.009252,-95.169693
19,139,Muscatine,Iowa,41.465515,-91.077753
19,141,O'Brien,Iowa,43.129233,-95.69531
19,143,Osceola,Iowa,43.387203,-95.680981
19,145,Page,Iowa,40.746972,-95.18734
19,147,Palo Alto,Iowa,43.101085,-94.688525
19,149,Plymouth,Iowa,42.748026,-96.20304
19,151,Pocahontas,Iowa,42.744041,-94.706993
19,153,Polk,Iowa,41.630968,-93.640165
19,155,Pottawattamie,Iowa,41.278446,-95.79385
19,157,Poweshiek,Iowa,41.712451,-92.624939
19,159,Ringgold,Iowa,40.737978,-94.237097
19,161,Sac,Iowa,42.37525,-95.089609
19,163,Scott,Iowa,41.5647,-90.562678
19,165,Shelby,Iowa,41.662625,-95.32328
19,167,Sioux,Iowa,43.080798,-96.167993
19,169,Story,Iowa,42.025132,-93.604948
19,171,Tama,Iowa,42.062414,-92.544134
19,173,Taylor,Iowa,40.753586,-94.679839
19,175,Union,Iowa,41.054759,-94.318334
19,177,Van Buren,Iowa,40.744224,-91.942474
19,179,Wapello,Iowa,41.01642,-92.418899
19,181,Warren,Iowa,41.40685,-93.595647
19,183,Washington,Iowa,41.365129,-91.69418
19,185,Wayne,Iowa,40.733313,-93.304108
19,187,Webster,Iowa,42.481229,-94.179496
19,189,Winnebago,Iowa,43.341507,-93.663913
19,191,Winneshiek,Iowa,43.281109,-91.813207
19,193,Woodbury,Iowa,42.483312,-96.345995
19,195,Worth,Iowa,43.369396,-93.250437
19,197,Wright,Iowa,42.732976,-93.756305
20,001,Allen,Kansas,37.896944,-95.369306
20,003,Anderson,Kansas,38.251802,-95.263224
20,005,Atchison,Kansas,39.555375,-95.179193
20,007,Barber,Kansas,37.211912,-98.557723
20,009,Barton,Kansas,38.396456,-98.75829
20,011,Bourbon,Kansas,37.845974,-94.749672
20,013,Brown,Kansas,39.805025,-95.551801
20,015,Butler,Kansas,37.725409,-96.99849
20,017,Chase,Kansas,38.358225,-96.558338
20,019,Chautauqua,Kansas,37.115752,-96.228059
20,021,Cherokee,Kansas,37.114832,-94.751725
20,023,Cheyenne,Kansas,39.769323,-101.738091
20,025,Clark,Kansas,37.295814,-99.886429
20,027,Clay,Kansas,39.354338,-97.122448
20,029,Cloud,Kansas,39.53486,-97.635801
20,031,Coffey,Kansas,38.249077,-95.741609
20,033,Comanche,Kansas,37.233664,-99.373213
20,035,Cowley,Kansas,37.17461,-96.99836
20,037,Crawford,Kansas,37.438265,-94.729385
20,039,Decatur,Kansas,39.804239,-100.484373
20,041,Dickinson,Kansas,38.886002,-97.152074
20,043,Doniphan,Kansas,39.787452,-95.071424
20,045,Douglas,Kansas,38.942493,-95.254186
20,047,Edwards,Kansas,37.913198,-99.352782
20,049,Elk,Kansas,37.423675,-96.239085
20,051,Ellis,Kansas,38.882206,-99.330542
20,053,Ellsworth,Kansas,38.725437,-98.268058
20,055,Finney,Kansas,37.977246,-100.863047
20,057,Ford,Kansas,37.753005,-99.995523
20,059,Franklin,Kansas,38.603542,-95.260357
20,061,Geary,Kansas,39.040483,-96.838824
20,063,Gove,Kansas,39.047079,-100.377754
20,065,Graham,Kansas,39.358244,-99.855627
20,067,Grant,Kansas,37.580299,-101.351338
20,069,Gray,Kansas,37.724149,-100.412286
20,071,Greeley,Kansas,38.483553,-101.758084
20,073,Greenwood,Kansas,37.861919,-96.224613
20,075,Hamilton,Kansas,37.98058,-101.760582
20,077,Harper,Kansas,37.215327,-98.049879
20,079,Harvey,Kansas,38.046143,-97.385867
20,081,Haskell,Kansas,37.495004,-100.890211
20,083,Hodgeman,Kansas,38.085859,-99.860131
20,085,Jackson,Kansas,39.402317,-95.752834
20,087,Jefferson,Kansas,39.210953,-95.397523
20,089,Jewell,Kansas,39.777617,-98.198892
20,091,Johnson,Kansas,38.924919,-94.740299
20,093,Kearny,Kansas,37.951539,-101.24168
20,095,Kingman,Kansas,37.610273,-98.098011
20,097,Kiowa,Kansas,37.595999,-99.252339
20,099,Labette,Kansas,37.259841,-95.262384
20,101,Lane,Kansas,38.504038,-100.483419
20,103,Leavenworth,Kansas,39.23513,-94.959527
20,105,Lincoln,Kansas,39.035019,-98.186201
20,107,Linn,Kansas,38.239619,-94.800976
20,109,Logan,Kansas,39.095504,-100.926327
20,111,Lyon,Kansas,38.416221,-96.17907
20,113,McPherson,Kansas,38.382645,-97.646719
20,115,Marion,Kansas,38.324754,-97.127529
20,117,Marshall,Kansas,39.800328,-96.573926
20,119,Meade,Kansas,37.292243,-100.396872
20,121,Miami,Kansas,38.595195,-94.83105
20,123,Mitchell,Kansas,39.45426,-98.175033
20,125,Montgomery,Kansas,37.143443,-95.693873
20,127,Morris,Kansas,38.694354,-96.58085
20,129,Morton,Kansas,37.043232,-101.840026
20,131,Nemaha,Kansas,39.829395,-95.96626
20,133,Neosho,Kansas,37.623786,-95.396134
20,135,Ness,Kansas,38.488254,-99.897744
20,137,Norton,Kansas,39.82351,-99.876765
20,139,Osage,Kansas,38.699173,-95.713137
20,141,Osborne,Kansas,39.425897,-98.705316
20,143,Ottawa,Kansas,39.096393,-97.682422
20,145,Pawnee,Kansas,38.179763,-99.146958
20,147,Phillips,Kansas,39.759487,-99.348621
20,149,Pottawatomie,Kansas,39.251723,-96.332282
20,151,Pratt,Kansas,37.6448,-98.730599
20,153,Rawlins,Kansas,39.807173,-101.050348
20,155,Reno,Kansas,38.051646,-97.931942
20,157,Republic,Kansas,39.817924,-97.659071
20,159,Rice,Kansas,38.320405,-98.199874
20,161,Riley,Kansas,39.190165,-96.632706
20,163,Rooks,Kansas,39.321747,-99.314061
20,165,Rush,Kansas,38.527826,-99.281206
20,167,Russell,Kansas,38.904218,-98.830652
20,169,Saline,Kansas,38.814764,-97.605554
20,171,Scott,Kansas,38.481574,-100.913143
20,173,Sedgwick,Kansas,37.680269,-97.34439
20,175,Seward,Kansas,37.051086,-100.918735
20,177,Shawnee,Kansas,39.034789,-95.706417
20,179,Sheridan,Kansas,39.368138,-100.463405
20,181,Sherman,Kansas,39.350878,-101.726045
20,183,Smith,Kansas,39.770601,-98.805608
20,185,Stafford,Kansas,38.005058,-98.733831
20,187,Stanton,Kansas,37.565287,-101.757372
20,189,Stevens,Kansas,37.187133,-101.322543
20,191,Sumner,Kansas,37.303365,-97.406786
20,193,Thomas,Kansas,39.384656,-101.050191
20,195,Trego,Kansas,39.003748,-99.881416
20,197,Wabaunsee,Kansas,38.989695,-96.178582
20,199,Wallace,Kansas,38.885844,-101.761616
20,201,Washington,Kansas,39.779332,-97.048861
20,203,Wichita,Kansas,38.494575,-101.349645
20,205,Wilson,Kansas,37.511463,-95.739717
20,207,Woodson,Kansas,37.876071,-95.735035
20,209,Wyandotte,Kansas,39.106038,-94.712818
21,001,Adair,Kentucky,37.107461,-85.27965
21,003,Allen,Kentucky,36.750241,-86.210149
21,005,Anderson,Kentucky,38.02799,-84.925693
21,007,Ballard,Kentucky,37.043623,-88.976992
21,009,Barren,Kentucky,36.995285,-85.932182
21,011,Bath,Kentucky,38.138475,-83.7406
21,013,Bell,Kentucky,36.680825,-83.70439
21,015,Boone,Kentucky,38.984893,-84.678985
21,017,Bourbon,Kentucky,38.203999,-84.246703
21,019,Boyd,Kentucky,38.432179,-82.666251
21,021,Boyle,Kentucky,37.637853,-84.796823
21,023,Bracken,Kentucky,38.701217,-84.072685
21,025,Breathitt,Kentucky,37.518699,-83.377385
21,027,Breckinridge,Kentucky,37.769799,-86.408122
21,029,Bullitt,Kentucky,38.023787,-85.651771
21,031,Butler,Kentucky,37.217537,-86.677714
21,033,Caldwell,Kentucky,37.125484,-87.878812
21,035,Calloway,Kentucky,36.621007,-88.30609
21,037,Campbell,Kentucky,39.032376,-84.439251
21,039,Carlisle,Kentucky,36.855639,-88.946346
21,041,Carroll,Kentucky,38.669245,-85.140741
21,043,Carter,Kentucky,38.314087,-83.034886
21,045,Casey,Kentucky,37.301616,-84.925995
21,047,Christian,Kentucky,36.80904,-87.477832
21,049,Clark,Kentucky,37.986421,-84.182808
21,051,Clay,Kentucky,37.168974,-83.750091
21,053,Clinton,Kentucky,36.715915,-85.13447
21,055,Crittenden,Kentucky,37.33223,-88.095012
21,057,Cumberland,Kentucky,36.782421,-85.389733
21,059,Daviess,Kentucky,37.747426,-87.095079
21,061,Edmonson,Kentucky,37.192292,-86.253259
21,063,Elliott,Kentucky,38.122978,-83.108689
21,065,Estill,Kentucky,37.707053,-83.991846
21,067,Fayette,Kentucky,38.020293,-84.49441
21,069,Fleming,Kentucky,38.388852,-83.709683
21,071,Floyd,Kentucky,37.558551,-82.7396
21,073,Franklin,Kentucky,38.195361,-84.867165
21,075,Fulton,Kentucky,36.538105,-89.037115
21,077,Gallatin,Kentucky,38.764935,-84.841609
21,079,Garrard,Kentucky,37.650333,-84.575237
21,081,Grant,Kentucky,38.689224,-84.602905
21,083,Graves,Kentucky,36.742207,-88.650736
21,085,Grayson,Kentucky,37.471252,-86.30457
21,087,Green,Kentucky,37.265986,-85.538884
21,089,Greenup,Kentucky,38.55436,-82.809161
21,091,Hancock,Kentucky,37.868547,-86.805118
21,093,Hardin,Kentucky,37.743564,-85.915853
21,095,Harlan,Kentucky,36.866097,-83.2338
21,097,Harrison,Kentucky,38.414072,-84.314294
21,099,Hart,Kentucky,37.280435,-85.88777
21,101,Henderson,Kentucky,37.817983,-87.564508
21,103,Henry,Kentucky,38.4314,-85.180752
21,105,Hickman,Kentucky,36.664413,-88.956556
21,107,Hopkins,Kentucky,37.308856,-87.52201
21,109,Jackson,Kentucky,37.400575,-83.992381
21,111,Jefferson,Kentucky,38.201451,-85.686227
21,113,Jessamine,Kentucky,37.886869,-84.585371
21,115,Johnson,Kentucky,37.830575,-82.817074
21,117,Kenton,Kentucky,39.011065,-84.549073
21,119,Knott,Kentucky,37.328988,-82.942351
21,121,Knox,Kentucky,36.902733,-83.921054
21,123,Larue,Kentucky,37.542807,-85.723159
21,125,Laurel,Kentucky,37.091997,-84.087505
21,127,Lawrence,Kentucky,38.081027,-82.677508
21,129,Lee,Kentucky,37.590698,-83.702693
21,131,Leslie,Kentucky,37.115702,-83.376004
21,133,Letcher,Kentucky,37.146816,-82.807202
21,135,Lewis,Kentucky,38.564104,-83.350474
21,137,Lincoln,Kentucky,37.473364,-84.670402
21,139,Livingston,Kentucky,37.133064,-88.351386
21,141,Logan,Kentucky,36.859958,-86.862831
21,143,Lyon,Kentucky,37.065485,-88.079475
21,145,McCracken,Kentucky,37.0493,-88.649871
21,147,McCreary,Kentucky,36.713019,-84.447417
21,149,McLean,Kentucky,37.51554,-87.221398
21,151,Madison,Kentucky,37.70685,-84.286707
21,153,Magoffin,Kentucky,37.733397,-83.057067
21,155,Marion,Kentucky,37.570127,-85.28442
21,157,Marshall,Kentucky,36.897003,-88.34
21,159,Martin,Kentucky,37.835468,-82.516965
21,161,Mason,Kentucky,38.616511,-83.789096
21,163,Meade,Kentucky,37.934417,-86.134606
21,165,Menifee,Kentucky,37.945275,-83.595979
21,167,Mercer,Kentucky,37.785035,-84.84891
21,169,Metcalfe,Kentucky,36.990976,-85.64095
21,171,Monroe,Kentucky,36.707799,-85.723364
21,173,Montgomery,Kentucky,38.037988,-83.918227
21,175,Morgan,Kentucky,37.914473,-83.268972
21,177,Muhlenberg,Kentucky,37.238076,-87.146244
21,179,Nelson,Kentucky,37.820783,-85.4595
21,181,Nicholas,Kentucky,38.324558,-84.022987
21,183,Ohio,Kentucky,37.464465,-86.864757
21,185,Oldham,Kentucky,38.372614,-85.459227
21,187,Owen,Kentucky,38.530989,-84.831041
21,189,Owsley,Kentucky,37.45244,-83.68482
21,191,Pendleton,Kentucky,38.715312,-84.359242
21,193,Perry,Kentucky,37.258818,-83.200329
21,195,Pike,Kentucky,37.463914,-82.427235
21,197,Powell,Kentucky,37.850736,-83.880539
21,199,Pulaski,Kentucky,37.092197,-84.614379
21,201,Robertson,Kentucky,38.520923,-84.051005
21,203,Rockcastle,Kentucky,37.380897,-84.351176
21,205,Rowan,Kentucky,38.194754,-83.444323
21,207,Russell,Kentucky,37.030799,-85.058512
21,209,Scott,Kentucky,38.230636,-84.568282
21,211,Shelby,Kentucky,38.212966,-85.232221
21,213,Simpson,Kentucky,36.732484,-86.571947
21,215,Spencer,Kentucky,38.06313,-85.350311
21,217,Taylor,Kentucky,37.350286,-85.342524
21,219,Todd,Kentucky,36.812095,-87.173233
21,221,Trigg,Kentucky,36.845549,-87.834907
21,223,Trimble,Kentucky,38.61932,-85.33207
21,225,Union,Kentucky,37.652277,-87.929907
21,227,Warren,Kentucky,36.966984,-86.435814
21,229,Washington,Kentucky,37.738166,-85.192752
21,231,Wayne,Kentucky,36.838184,-84.845965
21,233,Webster,Kentucky,37.502386,-87.68192
21,235,Whitley,Kentucky,36.814087,-84.141533
21,237,Wolfe,Kentucky,37.739826,-83.509721
21,239,Woodford,Kentucky,38.048373,-84.726705
22,001,Acadia,Louisiana,30.281563,-92.350979
22,003,Allen,Louisiana,30.669442,-92.779523
22,005,Ascension,Louisiana,30.254386,-90.934071
22,007,Assumption,Louisiana,29.921462,-91.065832
22,009,Avoyelles,Louisiana,31.057263,-92.067528
22,011,Beauregard,Louisiana,30.723548,-93.282544
22,013,Bienville,Louisiana,32.384335,-93.079008
22,015,Bossier,Louisiana,32.560816,-93.659046
22,017,Caddo,Louisiana,32.468933,-93.799166
22,019,Calcasieu,Louisiana,30.225067,-93.257749
22,021,Caldwell,Louisiana,32.073032,-92.104629
22,023,Cameron,Louisiana,29.957136,-93.210852
22,025,Catahoula,Louisiana,31.694978,-91.820047
22,027,Claiborne,Louisiana,32.826371,-93.033201
22,029,Concordia,Louisiana,31.592181,-91.54632
22,031,De Soto,Louisiana,32.121308,-93.778274
22,033,East Baton Rouge,Louisiana,30.460289,-91.100064
22,035,East Carroll,Louisiana,32.761788,-91.184557
22,037,East Feliciana,Louisiana,30.820502,-91.090607
22,039,Evangeline,Louisiana,30.690294,-92.361575
22,041,Franklin,Louisiana,32.147658,-91.695666
22,043,Grant,Louisiana,31.530198,-92.538082
22,045,Iberia,Louisiana,29.994242,-91.80964
22,047,Iberville,Louisiana,30.271035,-91.232013
22,049,Jackson,Louisiana,32.283184,-92.643112
22,051,Jefferson,Louisiana,29.945816,-90.152287
22,053,Jefferson Davis,Louisiana,30.241059,-92.746247
22,055,Lafayette,Louisiana,30.198103,-92.042199
22,057,Lafourche,Louisiana,29.690273,-90.63396
22,059,LaSalle,Louisiana,31.726006,-92.16954
22,061,Lincoln,Louisiana,32.54964,-92.645045
22,063,Livingston,Louisiana,30.48237,-90.843081
22,065,Madison,Louisiana,32.397655,-91.197847
22,067,Morehouse,Louisiana,32.785896,-91.8883
22,069,Natchitoches,Louisiana,31.757091,-93.097411
22,071,Orleans,Louisiana,29.975765,-90.05295
22,073,Ouachita,Louisiana,32.516411,-92.131922
22,075,Plaquemines,Louisiana,29.725872,-89.903288
22,077,Pointe Coupee,Louisiana,30.664814,-91.4947
22,079,Rapides,Louisiana,31.286365,-92.455373
22,081,Red River,Louisiana,32.054844,-93.305191
22,083,Richland,Louisiana,32.440206,-91.718715
22,085,Sabine,Louisiana,31.578134,-93.564477
22,087,St. Bernard,Louisiana,29.930597,-89.937239
22,089,St. Charles,Louisiana,29.938265,-90.376212
22,091,St. Helena,Louisiana,30.786666,-90.693517
22,093,St. James,Louisiana,30.020844,-90.736618
22,095,St. John the Baptist,Louisiana,30.072182,-90.511201
22,097,St. Landry,Louisiana,30.510054,-92.112737
22,099,St. Martin,Louisiana,30.231079,-91.83735
22,101,St. Mary,Louisiana,29.738031,-91.339006
22,103,St. Tammany,Louisiana,30.386943,-89.961836
22,105,Tangipahoa,Louisiana,30.561076,-90.449002
22,107,Tensas,Louisiana,31.960595,-91.298951
22,109,Terrebonne,Louisiana,29.596256,-90.725647
22,111,Union,Louisiana,32.788831,-92.398543
22,113,Vermilion,Louisiana,29.998731,-92.161801
22,115,Vernon,Louisiana,31.09456,-93.24714
22,117,Washington,Louisiana,30.839568,-90.004103
22,119,Webster,Louisiana,32.699031,-93.338052
22,121,West Baton Rouge,Louisiana,30.436753,-91.266575
22,123,West Carroll,Louisiana,32.827035,-91.427421
22,125,West Feliciana,Louisiana,30.888343,-91.442588
22,127,Winn,Louisiana,31.930579,-92.67791
23,001,Androscoggin,Maine,44.117226,-70.202081
23,003,Aroostook,Maine,46.701279,-68.088411
23,005,Cumberland,Maine,43.746359,-70.305033
23,007,Franklin,Maine,44.707406,-70.225872
23,009,Hancock,Maine,44.471045,-68.468176
23,011,Kennebec,Maine,44.395615,-69.748924
23,013,Knox,Maine,44.132937,-69.161632
23,015,Lincoln,Maine,44.034295,-69.553445
23,017,Oxford,Maine,44.279251,-70.614092
23,019,Penobscot,Maine,44.944506,-68.797457
23,021,Piscataquis,Maine,45.242664,-69.256031
23,023,Sagadahoc,Maine,43.956844,-69.871506
23,025,Somerset,Maine,44.820189,-69.685098
23,027,Waldo,Maine,44.490051,-69.086158
23,029,Washington,Maine,44.861852,-67.46595
23,031,York,Maine,43.422532,-70.64015
24,001,Allegany,Maryland,39.628458,-78.820665
24,003,Anne Arundel,Maryland,39.071038,-76.604417
24,005,Baltimore,Maryland,39.368834,-76.620325
24,009,Calvert,Maryland,38.551108,-76.54407
24,011,Caroline,Maryland,38.873476,-75.830203
24,013,Carroll,Maryland,39.526206,-76.993056
24,015,Cecil,Maryland,39.614177,-75.936285
24,017,Charles,Maryland,38.58147,-76.951519
24,019,Dorchester,Maryland,38.571271,-76.011658
24,021,Frederick,Maryland,39.427679,-77.400605
24,023,Garrett,Maryland,39.51324,-79.305826
24,025,Harford,Maryland,39.520613,-76.309261
24,027,Howard,Maryland,39.217658,-76.854298
24,029,Kent,Maryland,39.244676,-76.05767
24,031,Montgomery,Maryland,39.087069,-77.124126
24,033,Prince George's,Maryland,38.909313,-76.888689
24,035,Queen Anne's,Maryland,39.021381,-76.149985
24,037,St. Mary's,Maryland,38.307223,-76.577954
24,039,Somerset,Maryland,38.13306,-75.742151
24,041,Talbot,Maryland,38.7685,-76.098027
24,043,Washington,Maryland,39.618688,-77.73148
24,045,Wicomico,Maryland,38.372255,-75.593756
24,047,Worcester,Maryland,38.30361,-75.234513
24,510,Baltimore,Maryland,39.314378,-76.618104
25,001,Barnstable,Massachusetts,41.692343,-70.328659
25,003,Berkshire,Massachusetts,42.456888,-73.218336
25,005,Bristol,Massachusetts,41.794278,-71.109451
25,007,Dukes,Massachusetts,41.419712,-70.60331
25,009,Essex,Massachusetts,42.625306,-70.991432
25,011,Franklin,Massachusetts,42.578152,-72.559152
25,013,Hampden,Massachusetts,42.125554,-72.574333
25,015,Hampshire,Massachusetts,42.312741,-72.572165
25,017,Middlesex,Massachusetts,42.447845,-71.254598
25,019,Nantucket,Massachusetts,41.267216,-70.089225
25,021,Norfolk,Massachusetts,42.202442,-71.146359
25,023,Plymouth,Massachusetts,42.023677,-70.855576
25,025,Suffolk,Massachusetts,42.336102,-71.077148
25,027,Worcester,Massachusetts,42.303377,-71.802715
26,001,Alcona,Michigan,44.668106,-83.46556
26,003,Alger,Michigan,46.384467,-86.711752
26,005,Allegan,Michigan,42.608445,-85.871027
26,007,Alpena,Michigan,45.050588,-83.502895
26,009,Antrim,Michigan,44.978317,-85.198554
26,011,Arenac,Michigan,44.044452,-83.884489
26,013,Baraga,Michigan,46.766517,-88.450012
26,015,Barry,Michigan,42.618511,-85.349392
26,017,Bay,Michigan,43.629992,-83.929196
26,019,Benzie,Michigan,44.651834,-86.011382
26,021,Berrien,Michigan,41.985704,-86.406377
26,023,Branch,Michigan,41.929177,-85.030705
26,025,Calhoun,Michigan,42.289631,-85.106049
26,027,Cass,Michigan,41.892277,-86.040504
26,029,Charlevoix,Michigan,45.244536,-85.11101
26,031,Cheboygan,Michigan,45.511041,-84.52108
26,033,Chippewa,Michigan,46.365585,-84.396326
26,035,Clare,Michigan,43.944384,-84.825685
26,037,Clinton,Michigan,42.886259,-84.55428
26,039,Crawford,Michigan,44.657052,-84.668957
26,041,Delta,Michigan,45.801912,-87.065752
26,043,Dickinson,Michigan,45.832994,-88.014029
26,045,Eaton,Michigan,42.645094,-84.739621
26,047,Emmet,Michigan,45.432042,-84.910442
26,049,Genesee,Michigan,43.002399,-83.693809
26,051,Gladwin,Michigan,43.968003,-84.439806
26,053,Gogebic,Michigan,46.446365,-89.992958
26,055,Grand Traverse,Michigan,44.713441,-85.613028
26,057,Gratiot,Michigan,43.34413,-84.631259
26,059,Hillsdale,Michigan,41.916883,-84.605231
26,061,Houghton,Michigan,47.127331,-88.54177
26,063,Huron,Michigan,43.832366,-83.063027
26,065,Ingham,Michigan,42.688382,-84.486253
26,067,Ionia,Michigan,42.957003,-85.086727
26,069,Iosco,Michigan,44.357042,-83.532361
26,071,Iron,Michigan,46.099565,-88.53764
26,073,Isabella,Michigan,43.608534,-84.80345
26,075,Jackson,Michigan,42.241802,-84.406618
26,077,Kalamazoo,Michigan,42.262549,-85.586372
26,079,Kalkaska,Michigan,44.720582,-85.164963
26,081,Kent,Michigan,42.961776,-85.625638
26,083,Keweenaw,Michigan,47.336126,-88.289269
26,085,Lake,Michigan,43.95721,-85.799431
26,087,Lapeer,Michigan,43.058194,-83.249396
26,089,Leelanau,Michigan,44.906992,-85.730072
26,091,Lenawee,Michigan,41.926112,-84.052777
26,093,Livingston,Michigan,42.575026,-83.856466
26,095,Luce,Michigan,46.335663,-85.56135
26,097,Mackinac,Michigan,45.997314,-84.881331
26,099,Macomb,Michigan,42.589118,-82.957895
26,101,Manistee,Michigan,44.306321,-86.185294
26,103,Marquette,Michigan,46.486717,-87.492759
26,105,Mason,Michigan,43.97455,-86.346719
26,107,Mecosta,Michigan,43.650863,-85.382191
26,109,Menominee,Michigan,45.342064,-87.579801
26,111,Midland,Michigan,43.643318,-84.296349
26,113,Missaukee,Michigan,44.307677,-85.179858
26,115,Monroe,Michigan,41.901664,-83.486421
26,117,Montcalm,Michigan,43.283564,-85.172737
26,119,Montmorency,Michigan,44.997449,-84.12591
26,121,Muskegon,Michigan,43.243847,-86.214941
26,123,Newaygo,Michigan,43.466224,-85.811272
26,125,Oakland,Michigan,42.586862,-83.314039
26,127,Oceana,Michigan,43.632662,-86.305778
26,129,Ogemaw,Michigan,44.286618,-84.127345
26,131,Ontonagon,Michigan,46.718929,-89.288199
26,133,Osceola,Michigan,43.965434,-85.357843
26,135,Oscoda,Michigan,44.701471,-84.14837
26,137,Otsego,Michigan,45.006949,-84.666769
26,139,Ottawa,Michigan,42.911054,-86.015862
26,141,Presque Isle,Michigan,45.356976,-83.868249
26,143,Roscommon,Michigan,44.364342,-84.650133
26,145,Saginaw,Michigan,43.399088,-83.996446
26,147,St. Clair,Michigan,42.912215,-82.563457
26,149,St. Joseph,Michigan,41.887521,-85.526887
26,151,Sanilac,Michigan,43.365189,-82.782963
26,153,Schoolcraft,Michigan,46.006087,-86.226826
26,155,Shiawassee,Michigan,42.942704,-84.147876
26,157,Tuscola,Michigan,43.429916,-83.433939
26,159,Van Buren,Michigan,42.260186,-86.001338
26,161,Washtenaw,Michigan,42.257602,-83.726939
26,163,Wayne,Michigan,42.329477,-83.226321
26,165,Wexford,Michigan,44.309686,-85.486553
27,001,Aitkin,Minnesota,46.570797,-93.52998
27,003,Anoka,Minnesota,45.195033,-93.269315
27,005,Becker,Minnesota,46.846984,-95.781108
27,007,Beltrami,Minnesota,47.585267,-94.86333
27,009,Benton,Minnesota,45.634664,-94.10435
27,011,Big Stone,Minnesota,45.395362,-96.446286
27,013,Blue Earth,Minnesota,44.133623,-93.994417
27,015,Brown,Minnesota,44.285144,-94.59176
27,017,Carlton,Minnesota,46.644206,-92.532283
27,019,Carver,Minnesota,44.836919,-93.679267
27,021,Cass,Minnesota,46.817725,-94.417932
27,023,Chippewa,Minnesota,44.961846,-95.618298
27,025,Chisago,Minnesota,45.452093,-92.924032
27,027,Clay,Minnesota,46.855003,-96.673903
27,029,Clearwater,Minnesota,47.559971,-95.388788
27,031,Cook,Minnesota,47.790102,-90.339448
27,033,Cottonwood,Minnesota,43.938574,-95.120928
27,035,Crow Wing,Minnesota,46.430863,-94.162322
27,037,Dakota,Minnesota,44.763244,-93.154642
27,039,Dodge,Minnesota,44.030082,-92.805954
27,041,Douglas,Minnesota,45.907933,-95.389465
27,043,Faribault,Minnesota,43.682751,-93.954993
27,045,Fillmore,Minnesota,43.696271,-92.081754
27,047,Freeborn,Minnesota,43.662772,-93.361666
27,049,Goodhue,Minnesota,44.446353,-92.66657
27,051,Grant,Minnesota,45.948536,-95.931474
27,053,Hennepin,Minnesota,44.976697,-93.361233
27,055,Houston,Minnesota,43.720423,-91.438661
27,057,Hubbard,Minnesota,47.058441,-94.933356
27,059,Isanti,Minnesota,45.542718,-93.259775
27,061,Itasca,Minnesota,47.315009,-93.521135
27,063,Jackson,Minnesota,43.66536,-95.109576
27,065,Kanabec,Minnesota,45.885216,-93.297994
27,067,Kandiyohi,Minnesota,45.154628,-95.017492
27,069,Kittson,Minnesota,48.729252,-96.77663
27,071,Koochiching,Minnesota,48.510977,-93.489801
27,073,Lac qui Parle,Minnesota,44.982404,-96.130868
27,075,Lake,Minnesota,47.186485,-91.560751
27,077,Lake of the Woods,Minnesota,48.769541,-94.744612
27,079,Le Sueur,Minnesota,44.39681,-93.716142
27,081,Lincoln,Minnesota,44.373948,-96.252306
27,083,Lyon,Minnesota,44.428528,-95.796682
27,085,McLeod,Minnesota,44.85967,-94.264775
27,087,Mahnomen,Minnesota,47.300158,-95.837513
27,089,Marshall,Minnesota,48.306927,-96.530084
27,091,Martin,Minnesota,43.665559,-94.50935
27,093,Meeker,Minnesota,45.136287,-94.481246
27,095,Mille Lacs,Minnesota,45.790781,-93.623033
27,097,Morrison,Minnesota,45.984633,-94.329081
27,099,Mower,Minnesota,43.665401,-92.901937
27,101,Murray,Minnesota,43.982392,-95.740801
27,103,Nicollet,Minnesota,44.265352,-94.058378
27,105,Nobles,Minnesota,43.635008,-95.663888
27,107,Norman,Minnesota,47.308519,-96.484363
27,109,Olmsted,Minnesota,44.024514,-92.476238
27,111,Otter Tail,Minnesota,46.408729,-95.789225
27,113,Pennington,Minnesota,48.102851,-96.147968
27,115,Pine,Minnesota,46.030418,-92.894181
27,117,Pipestone,Minnesota,43.980739,-96.268335
27,119,Polk,Minnesota,47.783873,-96.562798
27,121,Pope,Minnesota,45.630228,-95.439435
27,123,Ramsey,Minnesota,44.99291,-93.10565
27,125,Red Lake,Minnesota,47.875652,-96.132058
27,127,Redwood,Minnesota,44.440045,-95.189914
27,129,Renville,Minnesota,44.721227,-94.942285
27,131,Rice,Minnesota,44.372673,-93.26165
27,133,Rock,Minnesota,43.648084,-96.237081
27,135,Roseau,Minnesota,48.82443,-95.646717
27,137,St. Louis,Minnesota,47.078425,-92.307366
27,139,Scott,Minnesota,44.714553,-93.466447
27,141,Sherburne,Minnesota,45.402446,-93.718866
27,143,Sibley,Minnesota,44.58252,-94.165538
27,145,Stearns,Minnesota,45.559158,-94.355044
27,147,Steele,Minnesota,44.06586,-93.214616
27,149,Stevens,Minnesota,45.577955,-95.921798
27,151,Swift,Minnesota,45.272889,-95.637582
27,153,Todd,Minnesota,46.065805,-94.889142
27,155,Traverse,Minnesota,45.751962,-96.547312
27,157,Wabasha,Minnesota,44.298281,-92.21876
27,159,Wadena,Minnesota,46.52738,-95.044753
27,161,Waseca,Minnesota,44.062525,-93.551329
27,163,Washington,Minnesota,44.985726,-92.921431
27,165,Watonwan,Minnesota,43.992768,-94.58359
27,167,Wilkin,Minnesota,46.316429,-96.525623
27,169,Winona,Minnesota,44.023673,-91.718459
27,171,Wright,Minnesota,45.199091,-93.818147
27,173,Yellow Medicine,Minnesota,44.737396,-95.830115
28,001,Adams,Mississippi,31.545814,-91.35434
28,003,Alcorn,Mississippi,34.909527,-88.529805
28,005,Amite,Mississippi,31.187109,-90.807611
28,007,Attala,Mississippi,33.065276,-89.589172
28,009,Benton,Mississippi,34.813848,-89.203932
28,011,Bolivar,Mississippi,33.771865,-90.768825
28,013,Calhoun,Mississippi,33.930069,-89.309537
28,015,Carroll,Mississippi,33.46177,-89.919301
28,017,Chickasaw,Mississippi,33.93085,-88.93891
28,019,Choctaw,Mississippi,33.339222,-89.234179
28,021,Claiborne,Mississippi,31.931505,-90.950731
28,023,Clarke,Mississippi,32.067249,-88.731696
28,025,Clay,Mississippi,33.624883,-88.693
28,027,Coahoma,Mississippi,34.220105,-90.57036
28,029,Copiah,Mississippi,31.893381,-90.378623
28,031,Covington,Mississippi,31.634654,-89.546964
28,033,DeSoto,Mississippi,34.927389,-89.949653
28,035,Forrest,Mississippi,31.309279,-89.287954
28,037,Franklin,Mississippi,31.471678,-90.866734
28,039,George,Mississippi,30.868417,-88.590917
28,041,Greene,Mississippi,31.195402,-88.629422
28,043,Grenada,Mississippi,33.76756,-89.803438
28,045,Hancock,Mississippi,30.379142,-89.404092
28,047,Harrison,Mississippi,30.434161,-89.063779
28,049,Hinds,Mississippi,32.304046,-90.257
28,051,Holmes,Mississippi,33.089593,-90.028731
28,053,Humphreys,Mississippi,33.164116,-90.518897
28,055,Issaquena,Mississippi,32.889296,-91.018573
28,057,Itawamba,Mississippi,34.289689,-88.404342
28,059,Jackson,Mississippi,30.443696,-88.66863
28,061,Jasper,Mississippi,31.961091,-89.144805
28,063,Jefferson,Mississippi,31.714009,-91.057536
28,065,Jefferson Davis,Mississippi,31.575445,-89.816038
28,067,Jones,Mississippi,31.667175,-89.167194
28,069,Kemper,Mississippi,32.763776,-88.672958
28,071,Lafayette,Mississippi,34.359415,-89.52675
28,073,Lamar,Mississippi,31.273921,-89.439932
28,075,Lauderdale,Mississippi,32.401267,-88.692876
28,077,Lawrence,Mississippi,31.553787,-90.110558
28,079,Leake,Mississippi,32.733654,-89.510973
28,081,Lee,Mississippi,34.278226,-88.703819
28,083,Leflore,Mississippi,33.513518,-90.203416
28,085,Lincoln,Mississippi,31.54927,-90.457896
28,087,Lowndes,Mississippi,33.520258,-88.389424
28,089,Madison,Mississippi,32.509875,-90.104845
28,091,Marion,Mississippi,31.245825,-89.830527
28,093,Marshall,Mississippi,34.816554,-89.544076
28,095,Monroe,Mississippi,33.926461,-88.499061
28,097,Montgomery,Mississippi,33.496327,-89.682458
28,099,Neshoba,Mississippi,32.755039,-89.120008
28,101,Newton,Mississippi,32.415269,-89.129364
28,103,Noxubee,Mississippi,33.13285,-88.549668
28,105,Oktibbeha,Mississippi,33.448413,-88.825442
28,107,Panola,Mississippi,34.345346,-89.934868
28,109,Pearl River,Mississippi,30.640759,-89.631685
28,111,Perry,Mississippi,31.262146,-88.992608
28,113,Pike,Mississippi,31.219047,-90.435044
28,115,Pontotoc,Mississippi,34.253564,-89.015136
28,117,Prentiss,Mississippi,34.632609,-88.552077
28,119,Quitman,Mississippi,34.267733,-90.26323
28,121,Rankin,Mississippi,32.281333,-90.030487
28,123,Scott,Mississippi,32.40164,-89.529579
28,125,Sharkey,Mississippi,32.921684,-90.862626
28,127,Simpson,Mississippi,31.915898,-89.855744
28,129,Smith,Mississippi,31.970107,-89.504515
28,131,Stone,Mississippi,30.806397,-89.135849
28,133,Sunflower,Mississippi,33.593307,-90.584134
28,135,Tallahatchie,Mississippi,33.984159,-90.182077
28,137,Tate,Mississippi,34.644191,-89.948269
28,139,Tippah,Mississippi,34.765765,-88.924324
28,141,Tishomingo,Mississippi,34.730586,-88.228294
28,143,Tunica,Mississippi,34.720692,-90.341396
28,145,Union,Mississippi,34.483103,-89.010519
28,147,Walthall,Mississippi,31.150842,-90.122962
28,149,Warren,Mississippi,32.324815,-90.843777
28,151,Washington,Mississippi,33.369011,-91.01078
28,153,Wayne,Mississippi,31.650518,-88.662531
28,155,Webster,Mississippi,33.582804,-89.220716
28,157,Wilkinson,Mississippi,31.123212,-91.245215
28,159,Winston,Mississippi,33.084971,-89.042025
28,161,Yalobusha,Mississippi,34.081548,-89.694995
28,163,Yazoo,Mississippi,32.829241,-90.38218
29,001,Adair,Missouri,40.195278,-92.581512
29,003,Andrew,Missouri,39.919858,-94.8166
29,005,Atchison,Missouri,40.420914,-95.436109
29,007,Audrain,Missouri,39.203899,-91.826614
29,009,Barry,Missouri,36.737459,-93.865725
29,011,Barton,Missouri,37.495949,-94.305362
29,013,Bates,Missouri,38.280773,-94.362779
29,015,Benton,Missouri,38.301006,-93.310017
29,017,Bollinger,Missouri,37.340708,-89.999696
29,019,Boone,Missouri,38.956712,-92.321624
29,021,Buchanan,Missouri,39.750709,-94.819825
29,023,Butler,Missouri,36.756985,-90.417972
29,025,Caldwell,Missouri,39.663863,-93.998899
29,027,Callaway,Missouri,38.797548,-91.997518
29,029,Camden,Missouri,38.073064,-92.746042
29,031,Cape Girardeau,Missouri,37.355235,-89.607695
29,033,Carroll,Missouri,39.408302,-93.496539
29,035,Carter,Missouri,36.947475,-90.885719
29,037,Cass,Missouri,38.751052,-94.424307
29,039,Cedar,Missouri,37.765491,-93.895266
29,041,Chariton,Missouri,39.486142,-92.931479
29,043,Christian,Missouri,37.027878,-93.264355
29,045,Clark,Missouri,40.412112,-91.708614
29,047,Clay,Missouri,39.252956,-94.497328
29,049,Clinton,Missouri,39.602433,-94.367454
29,051,Cole,Missouri,38.55255,-92.220619
29,053,Cooper,Missouri,38.91006,-92.772757
29,055,Crawford,Missouri,38.061879,-91.321648
29,057,Dade,Missouri,37.415382,-93.824927
29,059,Dallas,Missouri,37.643751,-93.066641
29,061,Daviess,Missouri,39.938229,-93.980672
29,063,DeKalb,Missouri,39.825582,-94.354573
29,065,Dent,Missouri,37.631372,-91.545105
29,067,Douglas,Missouri,36.940662,-92.603414
29,069,Dunklin,Missouri,36.324914,-90.058119
29,071,Franklin,Missouri,38.436356,-90.998977
29,073,Gasconade,Missouri,38.446364,-91.490137
29,075,Gentry,Missouri,40.203737,-94.432825
29,077,Greene,Missouri,37.192242,-93.309507
29,079,Grundy,Missouri,40.093264,-93.59577
29,081,Harrison,Missouri,40.315594,-94.001268
29,083,Henry,Missouri,38.394287,-93.73769
29,085,Hickory,Missouri,37.91105,-93.329051
29,087,Holt,Missouri,40.084331,-95.185877
29,089,Howard,Missouri,39.140559,-92.70446
29,091,Howell,Missouri,36.792561,-91.873718
29,093,Iron,Missouri,37.578019,-90.713802
29,095,Jackson,Missouri,39.00998,-94.444287
29,097,Jasper,Missouri,37.129578,-94.444125
29,099,Jefferson,Missouri,38.340859,-90.475056
29,101,Johnson,Missouri,38.758577,-93.770288
29,103,Knox,Missouri,40.155205,-92.154081
29,105,Laclede,Missouri,37.669688,-92.653795
29,107,Lafayette,Missouri,39.055172,-93.842193
29,109,Lawrence,Missouri,37.034976,-93.799734
29,111,Lewis,Missouri,40.08916,-91.641748
29,113,Lincoln,Missouri,38.996776,-90.929751
29,115,Linn,Missouri,39.797177,-93.066695
29,117,Livingston,Missouri,39.79808,-93.553067
29,119,McDonald,Missouri,36.615343,-94.399016
29,121,Macon,Missouri,39.796483,-92.50812
29,123,Madison,Missouri,37.539522,-90.299752
29,125,Maries,Missouri,38.170013,-91.878849
29,127,Marion,Missouri,39.741435,-91.457393
29,129,Mercer,Missouri,40.415018,-93.579508
29,131,Miller,Missouri,38.246362,-92.50897
29,133,Mississippi,Missouri,36.856032,-89.368458
29,135,Moniteau,Missouri,38.627456,-92.611037
29,137,Monroe,Missouri,39.524752,-91.966322
29,139,Montgomery,Missouri,38.948967,-91.467436
29,141,Morgan,Missouri,38.383773,-92.85098
29,143,New Madrid,Missouri,36.612845,-89.651942
29,145,Newton,Missouri,36.921726,-94.414367
29,147,Nodaway,Missouri,40.352259,-94.868321
29,149,Oregon,Missouri,36.614979,-91.47387
29,151,Osage,Missouri,38.455126,-91.884527
29,153,Ozark,Missouri,36.623314,-92.421851
29,155,Pemiscot,Missouri,36.179974,-89.744692
29,157,Perry,Missouri,37.713861,-89.85786
29,159,Pettis,Missouri,38.701441,-93.247496
29,161,Phelps,Missouri,37.943357,-91.747022
29,163,Pike,Missouri,39.362999,-91.160041
29,165,Platte,Missouri,39.260346,-94.683735
29,167,Polk,Missouri,37.602027,-93.404435
29,169,Pulaski,Missouri,37.822042,-92.175732
29,171,Putnam,Missouri,40.483035,-92.984514
29,173,Ralls,Missouri,39.579823,-91.469172
29,175,Randolph,Missouri,39.413737,-92.451801
29,177,Ray,Missouri,39.336637,-94.062098
29,179,Reynolds,Missouri,37.329,-90.970144
29,181,Ripley,Missouri,36.626945,-90.790679
29,183,St. Charles,Missouri,38.778572,-90.671284
29,185,St. Clair,Missouri,38.057169,-93.763876
29,186,Ste. Genevieve,Missouri,37.94083,-90.165655
29,187,St. Francois,Missouri,37.834497,-90.488054
29,189,St. Louis,Missouri,38.644521,-90.389519
29,195,Saline,Missouri,39.111399,-93.202654
29,197,Schuyler,Missouri,40.461863,-92.520354
29,199,Scotland,Missouri,40.44806,-92.151796
29,201,Scott,Missouri,37.015235,-89.577539
29,203,Shannon,Missouri,37.068998,-91.432915
29,205,Shelby,Missouri,39.761716,-92.07725
29,207,Stoddard,Missouri,36.847864,-89.970872
29,209,Stone,Missouri,36.723445,-93.437769
29,211,Sullivan,Missouri,40.21493,-93.101593
29,213,Taney,Missouri,36.657085,-93.195143
29,215,Texas,Missouri,37.330114,-91.966146
29,217,Vernon,Missouri,37.836794,-94.33739
29,219,Warren,Missouri,38.790363,-91.098557
29,221,Washington,Missouri,37.953782,-90.785794
29,223,Wayne,Missouri,37.109113,-90.523545
29,225,Webster,Missouri,37.26294,-92.906843
29,227,Worth,Missouri,40.481643,-94.437082
29,229,Wright,Missouri,37.193283,-92.433272
29,510,St. Louis,Missouri,38.620558,-90.253332
30,001,Beaverhead,Montana,45.225028,-112.693549
30,003,Big Horn,Montana,45.568552,-107.499673
30,005,Blaine,Montana,48.432419,-108.871588
30,007,Broadwater,Montana,46.281619,-111.543362
30,009,Carbon,Montana,45.322269,-109.084845
30,011,Carter,Montana,45.687353,-104.525341
30,013,Cascade,Montana,47.491558,-111.306586
30,015,Chouteau,Montana,47.962552,-110.386252
30,017,Custer,Montana,46.401678,-105.814642
30,019,Daniels,Montana,48.783637,-105.431739
30,021,Dawson,Montana,47.137216,-104.748806
30,023,Deer Lodge,Montana,46.135851,-112.955566
30,025,Fallon,Montana,46.360506,-104.316077
30,027,Fergus,Montana,47.092022,-109.4146
30,029,Flathead,Montana,48.24738,-114.28093
30,031,Gallatin,Montana,45.682956,-111.128767
30,033,Garfield,Montana,47.309975,-106.946674
30,035,Glacier,Montana,48.601084,-112.803122
30,037,Golden Valley,Montana,46.297881,-109.120778
30,039,Granite,Montana,46.445392,-113.319927
30,041,Hill,Montana,48.511678,-109.767061
30,043,Jefferson,Montana,46.268426,-112.045462
30,045,Judith Basin,Montana,47.094038,-110.171269
30,047,Lake,Montana,47.608393,-114.123168
30,049,Lewis and Clark,Montana,46.646621,-112.019644
30,051,Liberty,Montana,48.538044,-110.985198
30,053,Lincoln,Montana,48.553306,-115.42649
30,055,McCone,Montana,47.569721,-105.638886
30,057,Madison,Montana,45.419014,-111.922649
30,059,Meagher,Montana,46.529828,-110.881517
30,061,Mineral,Montana,47.182752,-114.894335
30,063,Missoula,Montana,46.875546,-114.021512
30,065,Musselshell,Montana,46.420108,-108.483111
30,067,Park,Montana,45.604896,-110.596931
30,069,Petroleum,Montana,47.012154,-108.317862
30,071,Phillips,Montana,48.367246,-107.86655
30,073,Pondera,Montana,48.211424,-112.157767
30,075,Powder River,Montana,45.438494,-105.544609
30,077,Powell,Montana,46.450646,-112.757979
30,079,Prairie,Montana,46.809714,-105.276222
30,081,Ravalli,Montana,46.358548,-114.111357
30,083,Richland,Montana,47.72072,-104.204227
30,085,Roosevelt,Montana,48.134392,-105.212553
30,087,Rosebud,Montana,45.902894,-106.612238
30,089,Sanders,Montana,47.635009,-115.175789
30,091,Sheridan,Montana,48.734101,-104.49367
30,093,Silver Bow,Montana,45.98746,-112.525517
30,095,Stillwater,Montana,45.615383,-109.238178
30,097,Sweet Grass,Montana,45.829391,-109.91651
30,099,Teton,Montana,47.762524,-112.039341
30,101,Toole,Montana,48.578065,-111.850473
30,103,Treasure,Montana,46.247085,-107.247111
30,105,Valley,Montana,48.236249,-106.541586
30,107,Wheatland,Montana,46.454552,-109.845461
30,109,Wibaux,Montana,46.969955,-104.191241
30,111,Yellowstone,Montana,45.789945,-108.546051
31,001,Adams,Nebraska,40.585501,-98.41518
31,003,Antelope,Nebraska,42.147054,-98.057377
31,005,Arthur,Nebraska,41.569368,-101.678874
31,007,Banner,Nebraska,41.558824,-103.721644
31,009,Blaine,Nebraska,41.906138,-100.013369
31,011,Boone,Nebraska,41.677314,-98.014023
31,013,Box Butte,Nebraska,42.136678,-102.905215
31,015,Boyd,Nebraska,42.893569,-98.74483
31,017,Brown,Nebraska,42.543087,-99.849627
31,019,Buffalo,Nebraska,40.737756,-99.072828
31,021,Burt,Nebraska,41.845218,-96.347791
31,023,Butler,Nebraska,41.247435,-97.141745
31,025,Cass,Nebraska,40.949471,-96.063719
31,027,Cedar,Nebraska,42.576739,-97.250958
31,029,Chase,Nebraska,40.501955,-101.625629
31,031,Cherry,Nebraska,42.788407,-100.749694
31,033,Cheyenne,Nebraska,41.164852,-102.982567
31,035,Clay,Nebraska,40.547589,-98.027882
31,037,Colfax,Nebraska,41.515594,-97.076357
31,039,Cuming,Nebraska,41.896856,-96.758441
31,041,Custer,Nebraska,41.400577,-99.673936
31,043,Dakota,Nebraska,42.446864,-96.438647
31,045,Dawes,Nebraska,42.786274,-103.066332
31,047,Dawson,Nebraska,40.827351,-99.856676
31,049,Deuel,Nebraska,41.090929,-102.33652
31,051,Dixon,Nebraska,42.436803,-96.826061
31,053,Dodge,Nebraska,41.471288,-96.528637
31,055,Douglas,Nebraska,41.26173,-96.069741
31,057,Dundy,Nebraska,40.089487,-101.59927
31,059,Fillmore,Nebraska,40.541248,-97.580053
31,061,Franklin,Nebraska,40.185987,-98.95454
31,063,Frontier,Nebraska,40.609996,-100.398828
31,065,Furnas,Nebraska,40.250813,-99.934116
31,067,Gage,Nebraska,40.280866,-96.713556
31,069,Garden,Nebraska,41.429505,-102.323863
31,071,Garfield,Nebraska,41.803658,-99.104124
31,073,Gosper,Nebraska,40.59443,-99.826842
31,075,Grant,Nebraska,41.969597,-101.734576
31,077,Greeley,Nebraska,41.555312,-98.49942
31,079,Hall,Nebraska,40.91634,-98.377793
31,081,Hamilton,Nebraska,40.879505,-98.023002
31,083,Harlan,Nebraska,40.145347,-99.406335
31,085,Hayes,Nebraska,40.500842,-101.049757
31,087,Hitchcock,Nebraska,40.21095,-101.004675
31,089,Holt,Nebraska,42.460461,-98.743792
31,091,Hooker,Nebraska,42.010663,-101.050551
31,093,Howard,Nebraska,41.18917,-98.489627
31,095,Jefferson,Nebraska,40.164225,-97.141688
31,097,Johnson,Nebraska,40.401098,-96.227732
31,099,Kearney,Nebraska,40.507252,-98.99218
31,101,Keith,Nebraska,41.141819,-101.6998
31,103,Keya Paha,Nebraska,42.868932,-99.717406
31,105,Kimball,Nebraska,41.231296,-103.66158
31,107,Knox,Nebraska,42.62421,-97.782589
31,109,Lancaster,Nebraska,40.799269,-96.671536
31,111,Lincoln,Nebraska,41.119294,-100.789525
31,113,Logan,Nebraska,41.499176,-100.507661
31,115,Loup,Nebraska,41.832646,-99.416371
31,117,McPherson,Nebraska,41.560427,-101.004858
31,119,Madison,Nebraska,42.00636,-97.461443
31,121,Merrick,Nebraska,41.130786,-98.037243
31,123,Morrill,Nebraska,41.708586,-103.162925
31,125,Nance,Nebraska,41.404591,-97.896242
31,127,Nemaha,Nebraska,40.401975,-95.839188
31,129,Nuckolls,Nebraska,40.114628,-98.0618
31,131,Otoe,Nebraska,40.670824,-96.03688
31,133,Pawnee,Nebraska,40.133204,-96.177346
31,135,Perkins,Nebraska,40.844891,-101.675458
31,137,Phelps,Nebraska,40.466361,-99.40454
31,139,Pierce,Nebraska,42.259529,-97.591612
31,141,Platte,Nebraska,41.46697,-97.385528
31,143,Polk,Nebraska,41.173605,-97.55672
31,145,Red Willow,Nebraska,40.206742,-100.592097
31,147,Richardson,Nebraska,40.099879,-95.669705
31,149,Rock,Nebraska,42.536738,-99.499863
31,151,Saline,Nebraska,40.579217,-97.016896
31,153,Sarpy,Nebraska,41.152889,-96.0437
31,155,Saunders,Nebraska,41.195383,-96.560061
31,157,Scotts Bluff,Nebraska,41.865094,-103.680393
31,159,Seward,Nebraska,40.875087,-97.102308
31,161,Sheridan,Nebraska,42.704794,-102.404074
31,163,Sherman,Nebraska,41.228647,-98.968633
31,165,Sioux,Nebraska,42.408762,-103.833171
31,167,Stanton,Nebraska,41.985101,-97.255038
31,169,Thayer,Nebraska,40.178256,-97.628078
31,171,Thomas,Nebraska,41.967138,-100.565595
31,173,Thurston,Nebraska,42.161934,-96.522459
31,175,Valley,Nebraska,41.573672,-98.948914
31,177,Washington,Nebraska,41.504682,-96.156611
31,179,Wayne,Nebraska,42.223628,-97.056303
31,181,Webster,Nebraska,40.195862,-98.486606
31,183,Wheeler,Nebraska,41.885209,-98.545473
31,185,York,Nebraska,40.863485,-97.605023
32,001,Churchill,Nevada,39.474469,-118.796052
32,003,Clark,Nevada,36.141141,-115.152976
32,005,Douglas,Nevada,38.957468,-119.756218
32,007,Elko,Nevada,40.856303,-115.534273
32,009,Esmeralda,Nevada,37.704407,-117.670635
32,011,Eureka,Nevada,39.946993,-116.209128
32,013,Humboldt,Nevada,41.017558,-117.744296
32,015,Lander,Nevada,40.49846,-116.949528
32,017,Lincoln,Nevada,37.710093,-114.626444
32,019,Lyon,Nevada,39.355756,-119.327152
32,021,Mineral,Nevada,38.601613,-118.643399
32,023,Nye,Nevada,36.414296,-116.125667
32,027,Pershing,Nevada,40.334654,-118.294224
32,029,Storey,Nevada,39.389828,-119.622432
32,031,Washoe,Nevada,39.534488,-119.793527
32,033,White Pine,Nevada,39.278317,-114.875458
32,510,Carson City,Nevada,39.166096,-119.75408
33,001,Belknap,New Hampshire,43.518179,-71.439516
33,003,Carroll,New Hampshire,43.810093,-71.170079
33,005,Cheshire,New Hampshire,42.897949,-72.260597
33,007,Coos,New Hampshire,44.544534,-71.3636
33,009,Grafton,New Hampshire,43.83744,-71.957176
33,011,Hillsborough,New Hampshire,42.879412,-71.531546
33,013,Merrimack,New Hampshire,43.244048,-71.586768
33,015,Rockingham,New Hampshire,42.937487,-71.105861
33,017,Strafford,New Hampshire,43.246137,-70.954351
33,019,Sullivan,New Hampshire,43.370229,-72.256473
34,001,Atlantic,New Jersey,39.428157,-74.584723
34,003,Bergen,New Jersey,40.916918,-74.056816
34,005,Burlington,New Jersey,39.983738,-74.836627
34,007,Camden,New Jersey,39.863128,-75.026364
34,009,Cape May,New Jersey,39.096879,-74.806953
34,011,Cumberland,New Jersey,39.431713,-75.0896
34,013,Essex,New Jersey,40.767919,-74.216055
34,015,Gloucester,New Jersey,39.748752,-75.130305
34,017,Hudson,New Jersey,40.741644,-74.061448
34,019,Hunterdon,New Jersey,40.572604,-74.895969
34,021,Mercer,New Jersey,40.255387,-74.69945
34,023,Middlesex,New Jersey,40.484409,-74.388583
34,025,Monmouth,New Jersey,40.29118,-74.14859
34,027,Morris,New Jersey,40.859148,-74.50031
34,029,Ocean,New Jersey,39.978586,-74.215904
34,031,Passaic,New Jersey,40.923998,-74.189868
34,033,Salem,New Jersey,39.627242,-75.378171
34,035,Somerset,New Jersey,40.559937,-74.578391
34,037,Sussex,New Jersey,41.090477,-74.655456
34,039,Union,New Jersey,40.659355,-74.293688
34,041,Warren,New Jersey,40.794655,-75.014893
35,001,Bernalillo,New Mexico,35.109462,-106.617779
35,003,Catron,New Mexico,33.958709,-108.531494
35,005,Chaves,New Mexico,33.365668,-104.514733
35,006,Cibola,New Mexico,35.107009,-107.818849
35,007,Colfax,New Mexico,36.698075,-104.656615
35,009,Curry,New Mexico,34.421082,-103.213229
35,011,De Baca,New Mexico,34.460693,-104.247994
35,013,Doña Ana,New Mexico,32.24837,-106.728836
35,015,Eddy,New Mexico,32.538156,-104.288595
35,017,Grant,New Mexico,32.781053,-108.24321
35,019,Guadalupe,New Mexico,34.932588,-104.764455
35,021,Harding,New Mexico,35.853043,-103.978557
35,023,Hidalgo,New Mexico,32.286524,-108.771223
35,025,Lea,New Mexico,32.75172,-103.190527
35,027,Lincoln,New Mexico,33.419573,-105.631108
35,028,Los Alamos,New Mexico,35.869176,-106.272314
35,029,Luna,New Mexico,32.223031,-107.741875
35,031,McKinley,New Mexico,35.513228,-108.634281
35,033,Mora,New Mexico,36.00418,-105.23707
35,035,Otero,New Mexico,32.778517,-106.000317
35,037,Quay,New Mexico,35.178327,-103.662364
35,039,Rio Arriba,New Mexico,36.203984,-106.205155
35,041,Roosevelt,New Mexico,34.168551,-103.347539
35,043,Sandoval,New Mexico,35.319674,-106.649224
35,045,San Juan,New Mexico,36.723982,-108.220154
35,047,San Miguel,New Mexico,35.576344,-105.307874
35,049,Santa Fe,New Mexico,35.632632,-106.004765
35,051,Sierra,New Mexico,33.106952,-107.281723
35,053,Socorro,New Mexico,34.154884,-106.960356
35,055,Taos,New Mexico,36.435099,-105.60791
35,057,Torrance,New Mexico,34.870562,-106.1027
35,059,Union,New Mexico,36.468186,-103.265891
35,061,Valencia,New Mexico,34.755709,-106.722815
36,001,Albany,New York,42.680589,-73.811637
36,003,Allegany,New York,42.228676,-78.020786
36,005,Bronx,New York,40.849395,-73.882271
36,007,Broome,New York,42.120758,-75.936264
36,009,Cattaraugus,New York,42.223696,-78.608393
36,011,Cayuga,New York,42.938915,-76.560652
36,013,Chautauqua,New York,42.245031,-79.314802
36,015,Chemung,New York,42.120553,-76.813813
36,017,Chenango,New York,42.480979,-75.568857
36,019,Clinton,New York,44.72994,-73.542837
36,021,Columbia,New York,42.274439,-73.680411
36,023,Cortland,New York,42.595471,-76.146202
36,025,Delaware,New York,42.248721,-74.996335
36,027,Dutchess,New York,41.678068,-73.84154
36,029,Erie,New York,42.891147,-78.792727
36,031,Essex,New York,44.168428,-73.676357
36,033,Franklin,New York,44.717734,-74.351416
36,035,Fulton,New York,43.058597,-74.329857
36,037,Genesee,New York,42.998899,-78.171041
36,039,Greene,New York,42.298257,-73.978824
36,041,Hamilton,New York,43.612735,-74.385492
36,043,Herkimer,New York,43.071299,-74.994925
36,045,Jefferson,New York,44.019862,-75.89504
36,047,Kings,New York,40.651666,-73.954985
36,049,Lewis,New York,43.788692,-75.449227
36,051,Livingston,New York,42.769037,-77.762787
36,053,Madison,New York,42.98686,-75.719961
36,055,Monroe,New York,43.160725,-77.618985
36,057,Montgomery,New York,42.93271,-74.344144
36,059,Nassau,New York,40.716432,-73.603664
36,061,New York,New York,40.776422,-73.967437
36,063,Niagara,New York,43.134406,-78.851139
36,065,Oneida,New York,43.146277,-75.355941
36,067,Onondaga,New York,43.067977,-76.167376
36,069,Ontario,New York,42.902312,-77.266946
36,071,Orange,New York,41.41957,-74.239375
36,073,Orleans,New York,43.249285,-78.224364
36,075,Oswego,New York,43.392222,-76.31179
36,077,Otsego,New York,42.564145,-75.060236
36,079,Putnam,New York,41.410932,-73.718558
36,081,Queens,New York,40.721204,-73.834008
36,083,Rensselaer,New York,42.699563,-73.631993
36,085,Richmond,New York,40.589259,-74.136701
36,087,Rockland,New York,41.127445,-74.02214
36,089,St. Lawrence,New York,44.652827,-75.147873
36,091,Saratoga,New York,43.007918,-73.784353
36,093,Schenectady,New York,42.809147,-73.945253
36,095,Schoharie,New York,42.64398,-74.435708
36,097,Schuyler,New York,42.389251,-76.869139
36,099,Seneca,New York,42.82851,-76.827711
36,101,Steuben,New York,42.264824,-77.31968
36,103,Suffolk,New York,40.823365,-73.103278
36,105,Sullivan,New York,41.698542,-74.698587
36,107,Tioga,New York,42.121424,-76.298893
36,109,Tompkins,New York,42.459082,-76.478989
36,111,Ulster,New York,41.841749,-74.098362
36,113,Warren,New York,43.392942,-73.711242
36,115,Washington,New York,43.289043,-73.460751
36,117,Wayne,New York,43.143635,-77.130245
36,119,Westchester,New York,41.038581,-73.80547
36,121,Wyoming,New York,42.722711,-78.209554
36,123,Yates,New York,42.634707,-77.078135
37,001,Alamance,North Carolina,36.071544,-79.413154
37,003,Alexander,North Carolina,35.889332,-81.193451
37,005,Alleghany,North Carolina,36.497597,-81.10603
37,007,Anson,North Carolina,34.974145,-80.110797
37,009,Ashe,North Carolina,36.41363,-81.487979
37,011,Avery,North Carolina,36.07601,-81.939525
37,013,Beaufort,North Carolina,35.521622,-76.961773
37,015,Bertie,North Carolina,36.081687,-76.962721
37,017,Bladen,North Carolina,34.60917,-78.643311
37,019,Brunswick,North Carolina,34.041766,-78.216619
37,021,Buncombe,North Carolina,35.585308,-82.551811
37,023,Burke,North Carolina,35.73127,-81.641243
37,025,Cabarrus,North Carolina,35.395655,-80.621106
37,027,Caldwell,North Carolina,35.873003,-81.502542
37,029,Camden,North Carolina,36.369324,-76.197747
37,031,Carteret,North Carolina,34.744126,-76.818665
37,033,Caswell,North Carolina,36.399939,-79.361345
37,035,Catawba,North Carolina,35.695474,-81.245331
37,037,Chatham,North Carolina,35.756012,-79.208387
37,039,Cherokee,North Carolina,35.101433,-84.022596
37,041,Chowan,North Carolina,36.117035,-76.626616
37,043,Clay,North Carolina,35.036306,-83.805739
37,045,Cleveland,North Carolina,35.291366,-81.515786
37,047,Columbus,North Carolina,34.280555,-78.706901
37,049,Craven,North Carolina,35.069158,-77.04141
37,051,Cumberland,North Carolina,35.054571,-78.937283
37,053,Currituck,North Carolina,36.403222,-76.016801
37,055,Dare,North Carolina,35.920369,-75.676005
37,057,Davidson,North Carolina,35.857903,-80.200515
37,059,Davie,North Carolina,35.931411,-80.52037
37,061,Duplin,North Carolina,34.92845,-77.940295
37,063,Durham,North Carolina,35.986154,-78.901717
37,065,Edgecombe,North Carolina,35.902358,-77.656133
37,067,Forsyth,North Carolina,36.104617,-80.258522
37,069,Franklin,North Carolina,36.044193,-78.354026
37,071,Gaston,North Carolina,35.273689,-81.150823
37,073,Gates,North Carolina,36.464578,-76.706981
37,075,Graham,North Carolina,35.332126,-83.787137
37,077,Granville,North Carolina,36.216579,-78.649713
37,079,Greene,North Carolina,35.466704,-77.665166
37,081,Guilford,North Carolina,36.066734,-79.847354
37,083,Halifax,North Carolina,36.36143,-77.67408
37,085,Harnett,North Carolina,35.354081,-78.867419
37,087,Haywood,North Carolina,35.518934,-82.943122
37,089,Henderson,North Carolina,35.341636,-82.471646
37,091,Hertford,North Carolina,36.352235,-77.011325
37,093,Hoke,North Carolina,34.992582,-79.170107
37,095,Hyde,North Carolina,35.430458,-76.205134
37,097,Iredell,North Carolina,35.694772,-80.866837
37,099,Jackson,North Carolina,35.332904,-83.199035
37,101,Johnston,North Carolina,35.570579,-78.419098
37,103,Jones,North Carolina,35.030718,-77.354076
37,105,Lee,North Carolina,35.453843,-79.173582
37,107,Lenoir,North Carolina,35.260621,-77.633969
37,109,Lincoln,North Carolina,35.485544,-81.162521
37,111,McDowell,North Carolina,35.667381,-82.019915
37,113,Macon,North Carolina,35.156852,-83.377321
37,115,Madison,North Carolina,35.839031,-82.636142
37,117,Martin,North Carolina,35.830325,-77.097262
37,119,Mecklenburg,North Carolina,35.225341,-80.819873
37,121,Mitchell,North Carolina,35.960065,-82.113979
37,123,Montgomery,North Carolina,35.340612,-79.892912
37,125,Moore,North Carolina,35.23777,-79.439212
37,127,Nash,North Carolina,35.945971,-77.925858
37,129,New Hanover,North Carolina,34.210212,-77.878389
37,131,Northampton,North Carolina,36.44074,-77.450044
37,133,Onslow,North Carolina,34.734255,-77.405266
37,135,Orange,North Carolina,35.980115,-79.082329
37,137,Pamlico,North Carolina,35.102112,-76.782234
37,139,Pasquotank,North Carolina,36.294076,-76.247331
37,141,Pender,North Carolina,34.453784,-77.806662
37,143,Perquimans,North Carolina,36.180608,-76.422879
37,145,Person,North Carolina,36.37201,-78.97044
37,147,Pitt,North Carolina,35.576487,-77.383372
37,149,Polk,North Carolina,35.258428,-82.17688
37,151,Randolph,North Carolina,35.766153,-79.829145
37,153,Richmond,North Carolina,34.942668,-79.735374
37,155,Robeson,North Carolina,34.677173,-79.091794
37,157,Rockingham,North Carolina,36.40032,-79.773426
37,159,Rowan,North Carolina,35.620923,-80.522841
37,161,Rutherford,North Carolina,35.350767,-81.897864
37,163,Sampson,North Carolina,35.036714,-78.397561
37,165,Scotland,North Carolina,34.785743,-79.473966
37,167,Stanly,North Carolina,35.320568,-80.251909
37,169,Stokes,North Carolina,36.349476,-80.275236
37,171,Surry,North Carolina,36.431129,-80.657197
37,173,Swain,North Carolina,35.437811,-83.411997
37,175,Transylvania,North Carolina,35.210116,-82.743077
37,177,Tyrrell,North Carolina,35.895302,-76.242529
37,179,Union,North Carolina,35.01249,-80.631967
37,181,Vance,North Carolina,36.332774,-78.402975
37,183,Wake,North Carolina,35.795346,-78.679962
37,185,Warren,North Carolina,36.4113,-78.134476
37,187,Washington,North Carolina,35.863224,-76.651708
37,189,Watauga,North Carolina,36.218213,-81.686035
37,191,Wayne,North Carolina,35.372889,-77.986675
37,193,Wilkes,North Carolina,36.191877,-81.133714
37,195,Wilson,North Carolina,35.727699,-77.93379
37,197,Yadkin,North Carolina,36.164018,-80.673979
37,199,Yancey,North Carolina,35.910934,-82.294631
38,001,Adams,North Dakota,46.035876,-102.621818
38,003,Barnes,North Dakota,46.926891,-98.030382
38,005,Benson,North Dakota,48.022233,-99.148961
38,007,Billings,North Dakota,47.00341,-103.306329
38,009,Bottineau,North Dakota,48.818996,-100.635057
38,011,Bowman,North Dakota,46.17101,-103.389737
38,013,Burke,North Dakota,48.760535,-102.539257
38,015,Burleigh,North Dakota,46.823125,-100.761269
38,017,Cass,North Dakota,46.853248,-96.866085
38,019,Cavalier,North Dakota,48.756287,-98.408736
38,021,Dickey,North Dakota,46.090319,-98.316828
38,023,Divide,North Dakota,48.873168,-103.340573
38,025,Dunn,North Dakota,47.337232,-102.638185
38,027,Eddy,North Dakota,47.705809,-99.056923
38,029,Emmons,North Dakota,46.26697,-100.221494
38,031,Foster,North Dakota,47.460553,-99.032312
38,033,Golden Valley,North Dakota,46.891037,-103.959283
38,035,Grand Forks,North Dakota,47.904107,-97.114067
38,037,Grant,North Dakota,46.39358,-101.709905
38,039,Griggs,North Dakota,47.45152,-98.184378
38,041,Hettinger,North Dakota,46.452752,-102.563748
38,043,Kidder,North Dakota,46.913782,-99.803211
38,045,LaMoure,North Dakota,46.405038,-98.531088
38,047,Logan,North Dakota,46.497157,-99.553732
38,049,McHenry,North Dakota,48.179669,-100.700743
38,051,McIntosh,North Dakota,46.146072,-99.492968
38,053,McKenzie,North Dakota,47.815379,-103.249949
38,055,McLean,North Dakota,47.524037,-101.227016
38,057,Mercer,North Dakota,47.300979,-101.712049
38,059,Morton,North Dakota,46.82084,-100.987436
38,061,Mountrail,North Dakota,48.134813,-102.385064
38,063,Nelson,North Dakota,47.914125,-98.211495
38,065,Oliver,North Dakota,47.120347,-101.30705
38,067,Pembina,North Dakota,48.786353,-97.583136
38,069,Pierce,North Dakota,48.327982,-99.985438
38,071,Ramsey,North Dakota,48.129972,-98.834617
38,073,Ransom,North Dakota,46.473332,-97.654107
38,075,Renville,North Dakota,48.71223,-101.513019
38,077,Richland,North Dakota,46.265439,-96.76508
38,079,Rolette,North Dakota,48.837585,-99.815657
38,081,Sargent,North Dakota,46.166223,-97.587859
38,083,Sheridan,North Dakota,47.581765,-100.333635
38,085,Sioux,North Dakota,46.166774,-100.727458
38,087,Slope,North Dakota,46.418394,-103.416249
38,089,Stark,North Dakota,46.883324,-102.784958
38,091,Steele,North Dakota,47.459852,-97.75048
38,093,Stutsman,North Dakota,46.917429,-98.73948
38,095,Towner,North Dakota,48.575593,-99.232995
38,097,Traill,North Dakota,47.489414,-97.221419
38,099,Walsh,North Dakota,48.392384,-97.55615
38,101,Ward,North Dakota,48.251003,-101.324255
38,103,Wells,North Dakota,47.673531,-99.776162
38,105,Williams,North Dakota,48.198161,-103.581969
39,001,Adams,Ohio,38.851155,-83.519185
39,003,Allen,Ohio,40.757218,-84.123687
39,005,Ashland,Ohio,40.854406,-82.284305
39,007,Ashtabula,Ohio,41.792138,-80.769023
39,009,Athens,Ohio,39.342729,-82.09958
39,011,Auglaize,Ohio,40.543994,-84.27252
39,013,Belmont,Ohio,40.042452,-80.892944
39,015,Brown,Ohio,38.952078,-83.892764
39,017,Butler,Ohio,39.41063,-84.498421
39,019,Carroll,Ohio,40.608768,-81.114233
39,021,Champaign,Ohio,40.121157,-83.756495
39,023,Clark,Ohio,39.927551,-83.83172
39,025,Clermont,Ohio,39.104936,-84.213831
39,027,Clinton,Ohio,39.411451,-83.84298
39,029,Columbiana,Ohio,40.780285,-80.730613
39,031,Coshocton,Ohio,40.291486,-81.863132
39,033,Crawford,Ohio,40.796314,-82.873456
39,035,Cuyahoga,Ohio,41.448408,-81.677451
39,037,Darke,Ohio,40.116114,-84.606299
39,039,Defiance,Ohio,41.29476,-84.448702
39,041,Delaware,Ohio,40.213434,-83.012316
39,043,Erie,Ohio,41.40534,-82.62729
39,045,Fairfield,Ohio,39.799356,-82.672891
39,047,Fayette,Ohio,39.548507,-83.443856
39,049,Franklin,Ohio,40.001224,-82.992171
39,051,Fulton,Ohio,41.57813,-84.095238
39,053,Gallia,Ohio,38.83179,-82.275222
39,055,Geauga,Ohio,41.487507,-81.223418
39,057,Greene,Ohio,39.725798,-83.997172
39,059,Guernsey,Ohio,40.017747,-81.541964
39,061,Hamilton,Ohio,39.181054,-84.509096
39,063,Hancock,Ohio,41.038819,-83.642078
39,065,Hardin,Ohio,40.687272,-83.673001
39,067,Harrison,Ohio,40.308308,-81.052878
39,069,Henry,Ohio,41.360177,-84.078123
39,071,Highland,Ohio,39.21912,-83.582063
39,073,Hocking,Ohio,39.524899,-82.449693
39,075,Holmes,Ohio,40.568212,-81.869548
39,077,Huron,Ohio,41.176384,-82.613754
39,079,Jackson,Ohio,39.035842,-82.610925
39,081,Jefferson,Ohio,40.365484,-80.692361
39,083,Knox,Ohio,40.400283,-82.454323
39,085,Lake,Ohio,41.685007,-81.319872
39,087,Lawrence,Ohio,38.50139,-82.538753
39,089,Licking,Ohio,40.051058,-82.52159
39,091,Logan,Ohio,40.382633,-83.776776
39,093,Lorain,Ohio,41.391668,-82.110224
39,095,Lucas,Ohio,41.651951,-83.620346
39,097,Madison,Ohio,39.923532,-83.378429
39,099,Mahoning,Ohio,41.048246,-80.697024
39,101,Marion,Ohio,40.582108,-83.127065
39,103,Medina,Ohio,41.14417,-81.837739
39,105,Meigs,Ohio,39.061474,-82.011139
39,107,Mercer,Ohio,40.515597,-84.606448
39,109,Miami,Ohio,40.039896,-84.229494
39,111,Monroe,Ohio,39.743928,-81.066658
39,113,Montgomery,Ohio,39.744183,-84.206384
39,115,Morgan,Ohio,39.615975,-81.865949
39,117,Morrow,Ohio,40.51851,-82.793839
39,119,Muskingum,Ohio,39.963489,-81.996844
39,121,Noble,Ohio,39.77294,-81.487122
39,123,Ottawa,Ohio,41.532537,-83.080376
39,125,Paulding,Ohio,41.132652,-84.588497
39,127,Perry,Ohio,39.758487,-82.237977
39,129,Pickaway,Ohio,39.671077,-82.992679
39,131,Pike,Ohio,39.084195,-83.036586
39,133,Portage,Ohio,41.18075,-81.276935
39,135,Preble,Ohio,39.743238,-84.625367
39,137,Putnam,Ohio,41.008256,-84.115516
39,139,Richland,Ohio,40.761551,-82.54039
39,141,Ross,Ohio,39.341679,-83.023023
39,143,Sandusky,Ohio,41.340365,-83.100451
39,145,Scioto,Ohio,38.780894,-82.944686
39,147,Seneca,Ohio,41.127755,-83.202108
39,149,Shelby,Ohio,40.319534,-84.194302
39,151,Stark,Ohio,40.837592,-81.38898
39,153,Summit,Ohio,41.11615,-81.511871
39,155,Trumbull,Ohio,41.240483,-80.759943
39,157,Tuscarawas,Ohio,40.481355,-81.467009
39,159,Union,Ohio,40.241874,-83.334873
39,161,Van Wert,Ohio,40.856227,-84.565846
39,163,Vinton,Ohio,39.241186,-82.504249
39,165,Warren,Ohio,39.423255,-84.24395
39,167,Washington,Ohio,39.409803,-81.517688
39,169,Wayne,Ohio,40.836466,-81.864476
39,171,Williams,Ohio,41.532546,-84.57175
39,173,Wood,Ohio,41.453257,-83.602769
39,175,Wyandot,Ohio,40.865997,-83.299297
40,001,Adair,Oklahoma,35.887468,-94.635683
40,003,Alfalfa,Oklahoma,36.658546,-98.317631
40,005,Atoka,Oklahoma,34.329959,-96.097526
40,007,Beaver,Oklahoma,36.829383,-100.638158
40,009,Beckham,Oklahoma,35.361158,-99.511022
40,011,Blaine,Oklahoma,35.885203,-98.428177
40,013,Bryan,Oklahoma,33.980731,-96.386125
40,015,Caddo,Oklahoma,35.175959,-98.339383
40,017,Canadian,Oklahoma,35.493359,-97.766177
40,019,Carter,Oklahoma,34.189514,-97.19745
40,021,Cherokee,Oklahoma,35.902314,-94.995607
40,023,Choctaw,Oklahoma,34.019064,-95.528308
40,025,Cimarron,Oklahoma,36.734437,-102.496037
40,027,Cleveland,Oklahoma,35.269308,-97.450434
40,029,Coal,Oklahoma,34.548037,-96.278199
40,031,Comanche,Oklahoma,34.633044,-98.419449
40,033,Cotton,Oklahoma,34.31257,-98.331491
40,035,Craig,Oklahoma,36.679216,-95.154588
40,037,Creek,Oklahoma,35.9754,-96.226043
40,039,Custer,Oklahoma,35.547694,-98.828737
40,041,Delaware,Oklahoma,36.468532,-94.793251
40,043,Dewey,Oklahoma,36.057055,-99.074156
40,045,Ellis,Oklahoma,36.262513,-99.786963
40,047,Garfield,Oklahoma,36.398481,-97.885455
40,049,Garvin,Oklahoma,34.737491,-97.28949
40,051,Grady,Oklahoma,35.112409,-97.850428
40,053,Grant,Oklahoma,36.761056,-97.779663
40,055,Greer,Oklahoma,34.912036,-99.464241
40,057,Harmon,Oklahoma,34.694548,-99.897391
40,059,Harper,Oklahoma,36.768589,-99.761804
40,061,Haskell,Oklahoma,35.239002,-95.124795
40,063,Hughes,Oklahoma,35.079245,-96.326231
40,065,Jackson,Oklahoma,34.657239,-99.331416
40,067,Jefferson,Oklahoma,34.132097,-97.871654
40,069,Johnston,Oklahoma,34.262325,-96.650068
40,071,Kay,Oklahoma,36.744254,-97.125201
40,073,Kingfisher,Oklahoma,35.913869,-97.91096
40,075,Kiowa,Oklahoma,34.936853,-99.017988
40,077,Latimer,Oklahoma,34.88202,-95.255214
40,079,Le Flore,Oklahoma,35.065249,-94.639064
40,081,Lincoln,Oklahoma,35.656322,-96.882274
40,083,Logan,Oklahoma,35.822271,-97.442909
40,085,Love,Oklahoma,33.922696,-97.170128
40,087,McClain,Oklahoma,35.106328,-97.527577
40,089,McCurtain,Oklahoma,33.999674,-94.814678
